[
  {
    "id": "022409ae-b6f4-430a-90c4-e1a07423f88b",
    "elevation": 750,
    "lat": 46.11634,
    "lon": 10.757337,
    "name_deu": "Bocenago",
    "name_eng": "Bocenago",
    "name_ita": "Bocenago",
    "name_lld": "Bocenago",
    "id_venue_type": "2",
    "url": "https://meteo.report/var/data/forecasts/022409ae-b6f4-430a-90c4-e1a07423f88b.json"
  },
  {
    "id": "02670c4a-febf-4001-9b77-6d45619f27b1",
    "elevation": 961,
    "lat": 46.394368,
    "lon": 11.117277,
    "name_deu": "Romeno",
    "name_eng": "Romeno",
    "name_ita": "Romeno",
    "name_lld": "Romeno",
    "id_venue_type": "2",
    "url": "https://meteo.report/var/data/forecasts/02670c4a-febf-4001-9b77-6d45619f27b1.json"
  },
  {
    "id": "02cd7dd1-aa55-40f6-a000-b9050e4695af",
    "elevation": 565,
    "lat": 46.035222,
    "lon": 10.72866,
    "name_deu": "Tione di Trento",
    "name_eng": "Tione di Trento",
    "name_ita": "Tione di Trento",
    "name_lld": "Tione di Trento",
    "id_venue_type": "2",
    "url": "https://meteo.report/var/data/forecasts/02cd7dd1-aa55-40f6-a000-b9050e4695af.json"
  },
  {
    "id": "034a30f4-aa50-411f-948f-d4365f1be53f",
    "elevation": 204,
    "lat": 45.851912,
    "lon": 10.977647,
    "name_deu": "Mori",
    "name_eng": "Mori",
    "name_ita": "Mori",
    "name_lld": "Mori",
    "id_venue_type": "2",
    "url": "https://meteo.report/var/data/forecasts/034a30f4-aa50-411f-948f-d4365f1be53f.json"
  },
  {
    "id": "03525eb1-c139-4bbd-b836-cc7d3eaa78b3",
    "elevation": 1042,
    "lat": 46.165956,
    "lon": 11.005633,
    "name_deu": "Andalo",
    "name_eng": "Andalo",
    "name_ita": "Andalo",
    "name_lld": "Andalo",
    "id_venue_type": "2",
    "url": "https://meteo.report/var/data/forecasts/03525eb1-c139-4bbd-b836-cc7d3eaa78b3.json"
  },
  {
    "id": "08473db5-3cb6-44ac-bd07-c23f72d8d552",
    "elevation": 957,
    "lat": 46.179458,
    "lon": 11.071044,
    "name_deu": "Fai della Paganella",
    "name_eng": "Fai della Paganella",
    "name_ita": "Fai della Paganella",
    "name_lld": "Fai della Paganella",
    "id_venue_type": "2",
    "url": "https://meteo.report/var/data/forecasts/08473db5-3cb6-44ac-bd07-c23f72d8d552.json"
  },
  {
    "id": "0867c080-d2f7-4607-bd32-fb50b47fc91e",
    "elevation": 865,
    "lat": 46.142673,
    "lon": 10.966408,
    "name_deu": "Molveno",
    "name_eng": "Molveno",
    "name_ita": "Molveno",
    "name_lld": "Molveno",
    "id_venue_type": "2",
    "url": "https://meteo.report/var/data/forecasts/0867c080-d2f7-4607-bd32-fb50b47fc91e.json"
  },
  {
    "id": "0aa5df86-53a9-4589-bd82-ec7ab4f4fff9",
    "elevation": 475,
    "lat": 46.021798,
    "lon": 11.365011,
    "name_deu": "Novaledo",
    "name_eng": "Novaledo",
    "name_ita": "Novaledo",
    "name_lld": "Novaledo",
    "id_venue_type": "2",
    "url": "https://meteo.report/var/data/forecasts/0aa5df86-53a9-4589-bd82-ec7ab4f4fff9.json"
  },
  {
    "id": "0f1b5876-9325-4685-a471-1938cf39ec80",
    "elevation": 1832,
    "lat": 46.258557,
    "lon": 10.590497,
    "name_deu": "Tonalepass",
    "name_eng": "Tonale Pass",
    "name_ita": "Passo del Tonale",
    "name_lld": "",
    "id_venue_type": "2",
    "url": "https://meteo.report/var/data/forecasts/0f1b5876-9325-4685-a471-1938cf39ec80.json"
  },
  {
    "id": "106202e5-b797-47bf-8434-eb3f88a80791",
    "elevation": 482,
    "lat": 46.063174,
    "lon": 11.242151,
    "name_deu": "Pergine Valsugana",
    "name_eng": "Pergine Valsugana",
    "name_ita": "Pergine Valsugana",
    "name_lld": "Pergine Valsugana",
    "id_venue_type": "2",
    "url": "https://meteo.report/var/data/forecasts/106202e5-b797-47bf-8434-eb3f88a80791.json"
  },
  {
    "id": "111a8fd9-33a2-40c4-836b-183bdc3ae6ad",
    "elevation": 360,
    "lat": 46.043594,
    "lon": 11.55273,
    "name_deu": "Ospedaletto",
    "name_eng": "Ospedaletto",
    "name_ita": "Ospedaletto",
    "name_lld": "Ospedaletto",
    "id_venue_type": "2",
    "url": "https://meteo.report/var/data/forecasts/111a8fd9-33a2-40c4-836b-183bdc3ae6ad.json"
  },
  {
    "id": "128ce718-6b93-4f48-b3fd-4ead37aec63d",
    "elevation": 864,
    "lat": 46.18439,
    "lon": 11.029374,
    "name_deu": "Cavedago",
    "name_eng": "Cavedago",
    "name_ita": "Cavedago",
    "name_lld": "Cavedago",
    "id_venue_type": "2",
    "url": "https://meteo.report/var/data/forecasts/128ce718-6b93-4f48-b3fd-4ead37aec63d.json"
  },
  {
    "id": "135c1bb1-8b05-4ed8-830e-ff7443a8f9bd",
    "elevation": 216,
    "lat": 45.911904,
    "lon": 11.024818,
    "name_deu": "Nogaredo",
    "name_eng": "Nogaredo",
    "name_ita": "Nogaredo",
    "name_lld": "Nogaredo",
    "id_venue_type": "2",
    "url": "https://meteo.report/var/data/forecasts/135c1bb1-8b05-4ed8-830e-ff7443a8f9bd.json"
  },
  {
    "id": "150b31ac-970a-460a-91f5-603f8222cfde",
    "elevation": 228,
    "lat": 46.194308,
    "lon": 11.133829,
    "name_deu": "San Michele all'Adige",
    "name_eng": "San Michele all'Adige",
    "name_ita": "San Michele all'Adige",
    "name_lld": "San Michele all'Adige",
    "id_venue_type": "2",
    "url": "https://meteo.report/var/data/forecasts/150b31ac-970a-460a-91f5-603f8222cfde.json"
  },
  {
    "id": "17721771-61d5-417f-9702-4a759a33e4e3",
    "elevation": 1455,
    "lat": 46.135729,
    "lon": 11.323403,
    "name_deu": "Redebus Pass",
    "name_eng": "Redebus Pass",
    "name_ita": "Passo Redebus",
    "name_lld": "",
    "id_venue_type": "2",
    "url": "https://meteo.report/var/data/forecasts/17721771-61d5-417f-9702-4a759a33e4e3.json"
  },
  {
    "id": "186ca596-abfc-4882-ac14-999ed5edc6c6",
    "elevation": 1465,
    "lat": 46.476874,
    "lon": 11.773886,
    "name_deu": "Canazei",
    "name_eng": "Canazei",
    "name_ita": "Canazei",
    "name_lld": "Cianacei",
    "id_venue_type": "2",
    "url": "https://meteo.report/var/data/forecasts/186ca596-abfc-4882-ac14-999ed5edc6c6.json"
  },
  {
    "id": "19e81b01-fafd-4abb-921b-9ab34140da0a",
    "elevation": 348,
    "lat": 46.052219,
    "lon": 11.494223,
    "name_deu": "Castelnuovo",
    "name_eng": "Castelnuovo",
    "name_ita": "Castelnuovo",
    "name_lld": "Castelnuovo",
    "id_venue_type": "2",
    "url": "https://meteo.report/var/data/forecasts/19e81b01-fafd-4abb-921b-9ab34140da0a.json"
  },
  {
    "id": "1aa05d9a-9f2b-4c6a-8c2d-52da0ae60b88",
    "elevation": 984,
    "lat": 46.060959,
    "lon": 11.282579,
    "name_deu": "Vignola-Falesina",
    "name_eng": "Vignola-Falesina",
    "name_ita": "Vignola-Falesina",
    "name_lld": "Vignola-Falesina",
    "id_venue_type": "2",
    "url": "https://meteo.report/var/data/forecasts/1aa05d9a-9f2b-4c6a-8c2d-52da0ae60b88.json"
  },
  {
    "id": "1adf3aad-7f17-4cda-9c04-1b3988632799",
    "elevation": 963,
    "lat": 46.418759,
    "lon": 11.141023,
    "name_deu": "Sarnonico",
    "name_eng": "Sarnonico",
    "name_ita": "Sarnonico",
    "name_lld": "Sarnonico",
    "id_venue_type": "2",
    "url": "https://meteo.report/var/data/forecasts/1adf3aad-7f17-4cda-9c04-1b3988632799.json"
  },
  {
    "id": "1c6f9b44-094a-4604-8023-33be3d5e7be5",
    "elevation": 770,
    "lat": 46.146428,
    "lon": 10.769085,
    "name_deu": "Giustino",
    "name_eng": "Giustino",
    "name_ita": "Giustino",
    "name_lld": "Giustino",
    "id_venue_type": "2",
    "url": "https://meteo.report/var/data/forecasts/1c6f9b44-094a-4604-8023-33be3d5e7be5.json"
  },
  {
    "id": "1e083c5e-19b2-477e-84a1-d71f2356f1ec",
    "elevation": 770,
    "lat": 46.159162,
    "lon": 10.765126,
    "name_deu": "Pinzolo",
    "name_eng": "Pinzolo",
    "name_ita": "Pinzolo",
    "name_lld": "Pinzolo",
    "id_venue_type": "2",
    "url": "https://meteo.report/var/data/forecasts/1e083c5e-19b2-477e-84a1-d71f2356f1ec.json"
  },
  {
    "id": "1e5616b1-f529-4b9a-b66d-ed896c8b93e5",
    "elevation": 732,
    "lat": 46.3991,
    "lon": 11.003753,
    "name_deu": "Cis",
    "name_eng": "Cis",
    "name_ita": "Cis",
    "name_lld": "Cis",
    "id_venue_type": "2",
    "url": "https://meteo.report/var/data/forecasts/1e5616b1-f529-4b9a-b66d-ed896c8b93e5.json"
  },
  {
    "id": "1f656b25-a7d3-40e1-bbd8-bfbb23e3abc0",
    "elevation": 1084,
    "lat": 46.424987,
    "lon": 11.153057,
    "name_deu": "Ronzone",
    "name_eng": "Ronzone",
    "name_ita": "Ronzone",
    "name_lld": "Ronzone",
    "id_venue_type": "2",
    "url": "https://meteo.report/var/data/forecasts/1f656b25-a7d3-40e1-bbd8-bfbb23e3abc0.json"
  },
  {
    "id": "21beb719-69d1-4db3-a99d-1a0a9b990182",
    "elevation": 1007,
    "lat": 46.263117,
    "lon": 11.338022,
    "name_deu": "Capriana",
    "name_eng": "Capriana",
    "name_ita": "Capriana",
    "name_lld": "Capriana",
    "id_venue_type": "2",
    "url": "https://meteo.report/var/data/forecasts/21beb719-69d1-4db3-a99d-1a0a9b990182.json"
  },
  {
    "id": "22a90429-6482-47a7-a1b2-2ed6582bd0f5",
    "elevation": 608,
    "lat": 46.074532,
    "lon": 10.660792,
    "name_deu": "Porte di Rendena",
    "name_eng": "Porte di Rendena",
    "name_ita": "Porte di Rendena",
    "name_lld": "Porte di Rendena",
    "id_venue_type": "2",
    "url": "https://meteo.report/var/data/forecasts/22a90429-6482-47a7-a1b2-2ed6582bd0f5.json"
  },
  {
    "id": "23bf9fa6-3255-4a5a-a714-2ca30ca6a809",
    "elevation": 640,
    "lat": 46.154515,
    "lon": 11.805874,
    "name_deu": "Mezzano",
    "name_eng": "Mezzano",
    "name_ita": "Mezzano",
    "name_lld": "Mezzano",
    "id_venue_type": "2",
    "url": "https://meteo.report/var/data/forecasts/23bf9fa6-3255-4a5a-a714-2ca30ca6a809.json"
  },
  {
    "id": "23dc4f14-76a6-4753-abfd-2daba5ac482d",
    "elevation": 1015,
    "lat": 46.337259,
    "lon": 11.115364,
    "name_deu": "Sfruz",
    "name_eng": "Sfruz",
    "name_ita": "Sfruz",
    "name_lld": "Sfruz",
    "id_venue_type": "2",
    "url": "https://meteo.report/var/data/forecasts/23dc4f14-76a6-4753-abfd-2daba5ac482d.json"
  },
  {
    "id": "23e2c736-f478-47ea-81fb-948f867cae89",
    "elevation": 953,
    "lat": 46.279777,
    "lon": 11.434301,
    "name_deu": "Castello-Molina di Fiemme",
    "name_eng": "Castello-Molina di Fiemme",
    "name_ita": "Castello-Molina di Fiemme",
    "name_lld": "Castello-Molina di Fiemme",
    "id_venue_type": "2",
    "url": "https://meteo.report/var/data/forecasts/23e2c736-f478-47ea-81fb-948f867cae89.json"
  },
  {
    "id": "26fe0297-af43-41b0-b579-c81ea2cd6786",
    "elevation": 1618,
    "lat": 46.11867,
    "lon": 11.688425,
    "name_deu": "Brocon Pass",
    "name_eng": "Brocon Pass",
    "name_ita": "Passo Brocon",
    "name_lld": "",
    "id_venue_type": "2",
    "url": "https://meteo.report/var/data/forecasts/26fe0297-af43-41b0-b579-c81ea2cd6786.json"
  },
  {
    "id": "27b0481d-1e45-4fb8-8fe8-72c26e339e8a",
    "elevation": 1173,
    "lat": 46.364449,
    "lon": 10.67821,
    "name_deu": "Peio",
    "name_eng": "Peio",
    "name_ita": "Peio",
    "name_lld": "Peio",
    "id_venue_type": "2",
    "url": "https://meteo.report/var/data/forecasts/27b0481d-1e45-4fb8-8fe8-72c26e339e8a.json"
  },
  {
    "id": "29e8072a-110b-48c3-908c-268c3e334808",
    "elevation": 219,
    "lat": 46.216903,
    "lon": 11.119425,
    "name_deu": "Mezzocorona",
    "name_eng": "Mezzocorona",
    "name_ita": "Mezzocorona",
    "name_lld": "Mezzocorona",
    "id_venue_type": "2",
    "url": "https://meteo.report/var/data/forecasts/29e8072a-110b-48c3-908c-268c3e334808.json"
  },
  {
    "id": "2d3dd4a1-d81c-44fa-8734-60c61ed23aff",
    "elevation": 1000,
    "lat": 46.291585,
    "lon": 11.459648,
    "name_deu": "Cavalese",
    "name_eng": "Cavalese",
    "name_ita": "Cavalese",
    "name_lld": "Cavalese",
    "id_venue_type": "2",
    "url": "https://meteo.report/var/data/forecasts/2d3dd4a1-d81c-44fa-8734-60c61ed23aff.json"
  },
  {
    "id": "2deefb09-08f8-441a-a716-aa353524db8c",
    "elevation": 1036,
    "lat": 46.413357,
    "lon": 10.9646,
    "name_deu": "Bresimo",
    "name_eng": "Bresimo",
    "name_ita": "Bresimo",
    "name_lld": "Bresimo",
    "id_venue_type": "2",
    "url": "https://meteo.report/var/data/forecasts/2deefb09-08f8-441a-a716-aa353524db8c.json"
  },
  {
    "id": "2f7120c7-26a5-4585-bbef-bc05633636a8",
    "elevation": 769,
    "lat": 46.072907,
    "lon": 11.449819,
    "name_deu": "Torcegno",
    "name_eng": "Torcegno",
    "name_ita": "Torcegno",
    "name_lld": "Torcegno",
    "id_venue_type": "2",
    "url": "https://meteo.report/var/data/forecasts/2f7120c7-26a5-4585-bbef-bc05633636a8.json"
  },
  {
    "id": "3080a9af-d7bb-49cc-8747-d6bb51408267",
    "elevation": 2218,
    "lat": 46.506628,
    "lon": 11.75713,
    "name_deu": "Sellajoch",
    "name_eng": "Sella Pass",
    "name_ita": "Passo Sella",
    "name_lld": "",
    "id_venue_type": "2",
    "url": "https://meteo.report/var/data/forecasts/3080a9af-d7bb-49cc-8747-d6bb51408267.json"
  },
  {
    "id": "30f0ca2a-a8d2-4d39-bb1d-514f35f44142",
    "elevation": 1261,
    "lat": 46.296399,
    "lon": 10.688507,
    "name_deu": "Vermiglio",
    "name_eng": "Vermiglio",
    "name_ita": "Vermiglio",
    "name_lld": "Vermiglio",
    "id_venue_type": "2",
    "url": "https://meteo.report/var/data/forecasts/30f0ca2a-a8d2-4d39-bb1d-514f35f44142.json"
  },
  {
    "id": "328bb878-76fd-4d9c-a198-1af6a2095f2f",
    "elevation": 131,
    "lat": 45.734239,
    "lon": 10.935787,
    "name_deu": "Avio",
    "name_eng": "Avio",
    "name_ita": "Avio",
    "name_lld": "Avio",
    "id_venue_type": "2",
    "url": "https://meteo.report/var/data/forecasts/328bb878-76fd-4d9c-a198-1af6a2095f2f.json"
  },
  {
    "id": "3399bfc3-c9b6-41b3-a5db-de75c590a9a1",
    "elevation": 515,
    "lat": 46.237191,
    "lon": 11.03124,
    "name_deu": "Sporminore",
    "name_eng": "Sporminore",
    "name_ita": "Sporminore",
    "name_lld": "Sporminore",
    "id_venue_type": "2",
    "url": "https://meteo.report/var/data/forecasts/3399bfc3-c9b6-41b3-a5db-de75c590a9a1.json"
  },
  {
    "id": "34e6798e-05cb-405f-a5e5-565c0f16edad",
    "elevation": 751,
    "lat": 46.405542,
    "lon": 11.092699,
    "name_deu": "Dambel",
    "name_eng": "Dambel",
    "name_ita": "Dambel",
    "name_lld": "Dambel",
    "id_venue_type": "2",
    "url": "https://meteo.report/var/data/forecasts/34e6798e-05cb-405f-a5e5-565c0f16edad.json"
  },
  {
    "id": "358309dc-78e9-4f6c-8681-c96079d9ea49",
    "elevation": 506,
    "lat": 46.011634,
    "lon": 11.300855,
    "name_deu": "Levico Terme",
    "name_eng": "Levico Terme",
    "name_ita": "Levico Terme",
    "name_lld": "Levico Terme",
    "id_venue_type": "2",
    "url": "https://meteo.report/var/data/forecasts/358309dc-78e9-4f6c-8681-c96079d9ea49.json"
  },
  {
    "id": "35c6a001-c881-4e1e-a405-361a5443b18d",
    "elevation": 496,
    "lat": 46.15698,
    "lon": 11.153295,
    "name_deu": "Giovo",
    "name_eng": "Giovo",
    "name_ita": "Giovo",
    "name_lld": "Giovo",
    "id_venue_type": "2",
    "url": "https://meteo.report/var/data/forecasts/35c6a001-c881-4e1e-a405-361a5443b18d.json"
  },
  {
    "id": "37bb2112-8b78-4e67-a14b-a8c1841c0804",
    "elevation": 673,
    "lat": 46.22352,
    "lon": 11.26766,
    "name_deu": "Altavalle",
    "name_eng": "Altavalle",
    "name_ita": "Altavalle",
    "name_lld": "Altavalle",
    "id_venue_type": "2",
    "url": "https://meteo.report/var/data/forecasts/37bb2112-8b78-4e67-a14b-a8c1841c0804.json"
  },
  {
    "id": "3815fbae-78be-47b9-a675-f99231f0d978",
    "elevation": 808,
    "lat": 46.167829,
    "lon": 10.760127,
    "name_deu": "Carisolo",
    "name_eng": "Carisolo",
    "name_ita": "Carisolo",
    "name_lld": "Carisolo",
    "id_venue_type": "2",
    "url": "https://meteo.report/var/data/forecasts/3815fbae-78be-47b9-a675-f99231f0d978.json"
  },
  {
    "id": "3a623b82-1fd5-40a3-99db-bf125446e3d8",
    "elevation": 180,
    "lat": 45.914431,
    "lon": 11.031945,
    "name_deu": "Villa Lagarina",
    "name_eng": "Villa Lagarina",
    "name_ita": "Villa Lagarina",
    "name_lld": "Villa Lagarina",
    "id_venue_type": "2",
    "url": "https://meteo.report/var/data/forecasts/3a623b82-1fd5-40a3-99db-bf125446e3d8.json"
  },
  {
    "id": "3afe4975-74f3-461f-b595-8d480a69c484",
    "elevation": 465,
    "lat": 46.003439,
    "lon": 11.243691,
    "name_deu": "Calceranica al Lago",
    "name_eng": "Calceranica al Lago",
    "name_ita": "Calceranica al Lago",
    "name_lld": "Calceranica al Lago",
    "id_venue_type": "2",
    "url": "https://meteo.report/var/data/forecasts/3afe4975-74f3-461f-b595-8d480a69c484.json"
  },
  {
    "id": "3c4bc6bf-212c-4a2a-8556-9689ce2ca9ab",
    "elevation": 1170,
    "lat": 45.946843,
    "lon": 11.265895,
    "name_deu": "Lavarone",
    "name_eng": "Lavarone",
    "name_ita": "Lavarone",
    "name_lld": "Lavarone",
    "id_venue_type": "2",
    "url": "https://meteo.report/var/data/forecasts/3c4bc6bf-212c-4a2a-8556-9689ce2ca9ab.json"
  },
  {
    "id": "3f047e32-b139-4096-ae25-9c83a4441130",
    "elevation": 1333,
    "lat": 45.921673,
    "lon": 11.324404,
    "name_deu": "Luserna",
    "name_eng": "Luserna",
    "name_ita": "Luserna",
    "name_lld": "Lus\u00e9rn",
    "id_venue_type": "2",
    "url": "https://meteo.report/var/data/forecasts/3f047e32-b139-4096-ae25-9c83a4441130.json"
  },
  {
    "id": "419a12dc-c379-4c33-bd72-b870351a1b51",
    "elevation": 222,
    "lat": 45.877388,
    "lon": 10.890423,
    "name_deu": "Nago-Torbole",
    "name_eng": "Nago-Torbole",
    "name_ita": "Nago-Torbole",
    "name_lld": "Nago-Torbole",
    "id_venue_type": "2",
    "url": "https://meteo.report/var/data/forecasts/419a12dc-c379-4c33-bd72-b870351a1b51.json"
  },
  {
    "id": "43f0e812-8c25-4cf4-b279-cc91edbb5b81",
    "elevation": 692,
    "lat": 45.820504,
    "lon": 10.958179,
    "name_deu": "Brentonico",
    "name_eng": "Brentonico",
    "name_ita": "Brentonico",
    "name_lld": "Brentonico",
    "id_venue_type": "2",
    "url": "https://meteo.report/var/data/forecasts/43f0e812-8c25-4cf4-b279-cc91edbb5b81.json"
  },
  {
    "id": "4526a780-d3a8-4866-b6c1-23f260c1356a",
    "elevation": 652,
    "lat": 46.088486,
    "lon": 10.723107,
    "name_deu": "Pelugo",
    "name_eng": "Pelugo",
    "name_ita": "Pelugo",
    "name_lld": "Pelugo",
    "id_venue_type": "2",
    "url": "https://meteo.report/var/data/forecasts/4526a780-d3a8-4866-b6c1-23f260c1356a.json"
  },
  {
    "id": "48bb1e05-f5c8-4e49-9cb5-72dfb4933499",
    "elevation": 515,
    "lat": 46.32839,
    "lon": 11.09107,
    "name_deu": "Predaia",
    "name_eng": "Predaia",
    "name_ita": "Predaia",
    "name_lld": "Predaia",
    "id_venue_type": "2",
    "url": "https://meteo.report/var/data/forecasts/48bb1e05-f5c8-4e49-9cb5-72dfb4933499.json"
  },
  {
    "id": "493f942b-0f26-4266-888d-77382b00569e",
    "elevation": 1180,
    "lat": 46.30075,
    "lon": 11.44797,
    "name_deu": "Ville di Fiemme",
    "name_eng": "Ville di Fiemme",
    "name_ita": "Ville di Fiemme",
    "name_lld": "Ville di Fiemme",
    "id_venue_type": "2",
    "url": "https://meteo.report/var/data/forecasts/493f942b-0f26-4266-888d-77382b00569e.json"
  },
  {
    "id": "4b64ef5b-b493-4304-b83a-0cddf984da48",
    "elevation": 1220,
    "lat": 46.39665,
    "lon": 11.66788,
    "name_deu": "Soraga di Fassa",
    "name_eng": "Soraga di Fassa",
    "name_ita": "Soraga di Fassa",
    "name_lld": "Soraga di Fassa",
    "id_venue_type": "2",
    "url": "https://meteo.report/var/data/forecasts/4b64ef5b-b493-4304-b83a-0cddf984da48.json"
  },
  {
    "id": "4bd9dbf4-c327-4201-941b-bf334ffd6de2",
    "elevation": 534,
    "lat": 46.25834,
    "lon": 11.032973,
    "name_deu": "Campodenno",
    "name_eng": "Campodenno",
    "name_ita": "Campodenno",
    "name_lld": "Campodenno",
    "id_venue_type": "2",
    "url": "https://meteo.report/var/data/forecasts/4bd9dbf4-c327-4201-941b-bf334ffd6de2.json"
  },
  {
    "id": "4c17a2c4-f05d-4927-9a4f-daec87823174",
    "elevation": 1164,
    "lat": 45.760302,
    "lon": 11.172767,
    "name_deu": "Pian delle Fugazze Pass",
    "name_eng": "Pian delle Fugazze Pass",
    "name_ita": "Passo Pian delle Fugazze",
    "name_lld": "",
    "id_venue_type": "2",
    "url": "https://meteo.report/var/data/forecasts/4c17a2c4-f05d-4927-9a4f-daec87823174.json"
  },
  {
    "id": "4c41f402-85f0-4807-a904-03c31315bd1e",
    "elevation": 974,
    "lat": 45.891446,
    "lon": 10.951298,
    "name_deu": "Ronzo-Chienis",
    "name_eng": "Ronzo-Chienis",
    "name_ita": "Ronzo-Chienis",
    "name_lld": "Ronzo-Chienis",
    "id_venue_type": "2",
    "url": "https://meteo.report/var/data/forecasts/4c41f402-85f0-4807-a904-03c31315bd1e.json"
  },
  {
    "id": "4c6eaca3-6537-4f5b-80bf-ff5f792b84c7",
    "elevation": 1487,
    "lat": 46.2624735,
    "lon": 11.7980155,
    "name_deu": "San Martino di Castrozza",
    "name_eng": "San Martino di Castrozza",
    "name_ita": "San Martino di Castrozza",
    "name_lld": "",
    "id_venue_type": "2",
    "url": "https://meteo.report/var/data/forecasts/4c6eaca3-6537-4f5b-80bf-ff5f792b84c7.json"
  },
  {
    "id": "4eb7b383-f759-40bf-8cb2-5276dd769677",
    "elevation": 767,
    "lat": 45.950078,
    "lon": 10.601078,
    "name_deu": "Valdaone",
    "name_eng": "Valdaone",
    "name_ita": "Valdaone",
    "name_lld": "Valdaone",
    "id_venue_type": "2",
    "url": "https://meteo.report/var/data/forecasts/4eb7b383-f759-40bf-8cb2-5276dd769677.json"
  },
  {
    "id": "4f78668c-ee3b-49b0-a481-6a72fe67dda6",
    "elevation": 639,
    "lat": 46.145128,
    "lon": 11.220833,
    "name_deu": "Lona-Lases",
    "name_eng": "Lona-Lases",
    "name_ita": "Lona-Lases",
    "name_lld": "Lona-Lases",
    "id_venue_type": "2",
    "url": "https://meteo.report/var/data/forecasts/4f78668c-ee3b-49b0-a481-6a72fe67dda6.json"
  },
  {
    "id": "501d3c7f-ba05-48d9-b112-1a6dc2bf77b0",
    "elevation": 380,
    "lat": 46.053403,
    "lon": 11.457768,
    "name_deu": "Borgo Valsugana",
    "name_eng": "Borgo Valsugana",
    "name_ita": "Borgo Valsugana",
    "name_lld": "Borgo Valsugana",
    "id_venue_type": "2",
    "url": "https://meteo.report/var/data/forecasts/501d3c7f-ba05-48d9-b112-1a6dc2bf77b0.json"
  },
  {
    "id": "50a55eb0-18d6-4102-bcdb-794b831000b3",
    "elevation": 644,
    "lat": 46.14342,
    "lon": 11.195171,
    "name_deu": "Albiano",
    "name_eng": "Albiano",
    "name_ita": "Albiano",
    "name_lld": "Albiano",
    "id_venue_type": "2",
    "url": "https://meteo.report/var/data/forecasts/50a55eb0-18d6-4102-bcdb-794b831000b3.json"
  },
  {
    "id": "51196180-ddd3-496f-8f53-c75d505422df",
    "elevation": 504,
    "lat": 45.993975,
    "lon": 10.973661,
    "name_deu": "Cavedine",
    "name_eng": "Cavedine",
    "name_ita": "Cavedine",
    "name_lld": "Cavedine",
    "id_venue_type": "2",
    "url": "https://meteo.report/var/data/forecasts/51196180-ddd3-496f-8f53-c75d505422df.json"
  },
  {
    "id": "51727344-6fbe-4fb5-b9a4-b8cfce13017b",
    "elevation": 1325,
    "lat": 46.43035,
    "lon": 11.68672,
    "name_deu": "San Giovanni di Fassa",
    "name_eng": "San Giovanni di Fassa",
    "name_ita": "San Giovanni di Fassa",
    "name_lld": "S\u00e8n Jan",
    "id_venue_type": "2",
    "url": "https://meteo.report/var/data/forecasts/51727344-6fbe-4fb5-b9a4-b8cfce13017b.json"
  },
  {
    "id": "51d00f86-8ff3-46c6-b66c-1e7a0c300950",
    "elevation": 710,
    "lat": 46.36756,
    "lon": 10.957974,
    "name_deu": "Cavizzana",
    "name_eng": "Cavizzana",
    "name_ita": "Cavizzana",
    "name_lld": "Cavizzana",
    "id_venue_type": "2",
    "url": "https://meteo.report/var/data/forecasts/51d00f86-8ff3-46c6-b66c-1e7a0c300950.json"
  },
  {
    "id": "523f9dd3-363f-4a3f-a720-5e833a391975",
    "elevation": 724,
    "lat": 45.787582,
    "lon": 11.099608,
    "name_deu": "Vallarsa",
    "name_eng": "Vallarsa",
    "name_ita": "Vallarsa",
    "name_lld": "Vallarsa",
    "id_venue_type": "2",
    "url": "https://meteo.report/var/data/forecasts/523f9dd3-363f-4a3f-a720-5e833a391975.json"
  },
  {
    "id": "52f0a2bc-6c24-4eb6-b977-18f8f8c5a954",
    "elevation": 673,
    "lat": 46.081558,
    "lon": 11.522431,
    "name_deu": "Samone",
    "name_eng": "Samone",
    "name_ita": "Samone",
    "name_lld": "Samone",
    "id_venue_type": "2",
    "url": "https://meteo.report/var/data/forecasts/52f0a2bc-6c24-4eb6-b977-18f8f8c5a954.json"
  },
  {
    "id": "532de7ad-8fee-4162-a298-afc80c3af87f",
    "elevation": 593,
    "lat": 46.294707,
    "lon": 11.033153,
    "name_deu": "Cont\u00e0",
    "name_eng": "Cont\u00e0",
    "name_ita": "Cont\u00e0",
    "name_lld": "Cont\u00e0",
    "id_venue_type": "2",
    "url": "https://meteo.report/var/data/forecasts/532de7ad-8fee-4162-a298-afc80c3af87f.json"
  },
  {
    "id": "559189d7-8b31-4cae-93f8-fd50c16a08ad",
    "elevation": 1095,
    "lat": 46.411594,
    "lon": 10.806174,
    "name_deu": "Rabbi",
    "name_eng": "Rabbi",
    "name_ita": "Rabbi",
    "name_lld": "Rabbi",
    "id_venue_type": "2",
    "url": "https://meteo.report/var/data/forecasts/559189d7-8b31-4cae-93f8-fd50c16a08ad.json"
  },
  {
    "id": "56494f31-d210-452e-8c6d-e665b0f69c93",
    "elevation": 565,
    "lat": 46.218112,
    "lon": 11.048393,
    "name_deu": "Spormaggiore",
    "name_eng": "Spormaggiore",
    "name_ita": "Spormaggiore",
    "name_lld": "Spormaggiore",
    "id_venue_type": "2",
    "url": "https://meteo.report/var/data/forecasts/56494f31-d210-452e-8c6d-e665b0f69c93.json"
  },
  {
    "id": "57ec3caf-99b2-46e2-831f-15392dcf7934",
    "elevation": 953,
    "lat": 46.287384,
    "lon": 11.565329,
    "name_deu": "Ziano di Fiemme",
    "name_eng": "Ziano di Fiemme",
    "name_ita": "Ziano di Fiemme",
    "name_lld": "Ziano di Fiemme",
    "id_venue_type": "2",
    "url": "https://meteo.report/var/data/forecasts/57ec3caf-99b2-46e2-831f-15392dcf7934.json"
  },
  {
    "id": "58a1134f-2ac1-4095-a52f-e381e1d4a39a",
    "elevation": 1127,
    "lat": 46.107071,
    "lon": 11.314229,
    "name_deu": "Fierozzo",
    "name_eng": "Fierozzo",
    "name_ita": "Fierozzo",
    "name_lld": "Vlarotz",
    "id_venue_type": "2",
    "url": "https://meteo.report/var/data/forecasts/58a1134f-2ac1-4095-a52f-e381e1d4a39a.json"
  },
  {
    "id": "58d8fb51-0e77-4989-aff3-87960c52e3e3",
    "elevation": 1059,
    "lat": 46.165646,
    "lon": 11.301567,
    "name_deu": "Bedollo",
    "name_eng": "Bedollo",
    "name_ita": "Bedollo",
    "name_lld": "Bedollo",
    "id_venue_type": "2",
    "url": "https://meteo.report/var/data/forecasts/58d8fb51-0e77-4989-aff3-87960c52e3e3.json"
  },
  {
    "id": "5a5d33b6-7144-4913-b1be-45dbd7a9d7fd",
    "elevation": 941,
    "lat": 46.317063,
    "lon": 10.801066,
    "name_deu": "Mezzana",
    "name_eng": "Mezzana",
    "name_ita": "Mezzana",
    "name_lld": "Mezzana",
    "id_venue_type": "2",
    "url": "https://meteo.report/var/data/forecasts/5a5d33b6-7144-4913-b1be-45dbd7a9d7fd.json"
  },
  {
    "id": "5acc95bb-cfb3-4d53-8547-f1d9a3418d11",
    "elevation": 73,
    "lat": 45.888901,
    "lon": 10.842831,
    "name_deu": "Riva del Garda",
    "name_eng": "Riva del Garda",
    "name_ita": "Riva del Garda",
    "name_lld": "Riva del Garda",
    "id_venue_type": "2",
    "url": "https://meteo.report/var/data/forecasts/5acc95bb-cfb3-4d53-8547-f1d9a3418d11.json"
  },
  {
    "id": "5d71d863-9b91-49db-a24a-84430b367c30",
    "elevation": 1940,
    "lat": 46.380176,
    "lon": 11.789949,
    "name_deu": "San Pellegrino Pass",
    "name_eng": "San Pellegrino Pass",
    "name_ita": "Passo San Pellegrino",
    "name_lld": "",
    "id_venue_type": "2",
    "url": "https://meteo.report/var/data/forecasts/5d71d863-9b91-49db-a24a-84430b367c30.json"
  },
  {
    "id": "5dd99448-23a8-4857-9238-1f59fa6caeb6",
    "elevation": 660,
    "lat": 46.19064,
    "lon": 11.25644,
    "name_deu": "Segonzano",
    "name_eng": "Segonzano",
    "name_ita": "Segonzano",
    "name_lld": "Segonzano",
    "id_venue_type": "2",
    "url": "https://meteo.report/var/data/forecasts/5dd99448-23a8-4857-9238-1f59fa6caeb6.json"
  },
  {
    "id": "5f900be9-dbbe-4068-9397-13073dde2cf4",
    "elevation": 666,
    "lat": 46.052022,
    "lon": 10.853941,
    "name_deu": "Stenico",
    "name_eng": "Stenico",
    "name_ita": "Stenico",
    "name_lld": "Stenico",
    "id_venue_type": "2",
    "url": "https://meteo.report/var/data/forecasts/5f900be9-dbbe-4068-9397-13073dde2cf4.json"
  },
  {
    "id": "6064a14c-3483-44c4-a64c-45b471b4783c",
    "elevation": 204,
    "lat": 45.887303,
    "lon": 11.040389,
    "name_deu": "Rovereto",
    "name_eng": "Rovereto",
    "name_ita": "Rovereto",
    "name_lld": "Rovereto",
    "id_venue_type": "2",
    "url": "https://meteo.report/var/data/forecasts/6064a14c-3483-44c4-a64c-45b471b4783c.json"
  },
  {
    "id": "64744061-31fc-4621-beed-1d6bf7ee63f5",
    "elevation": 1018,
    "lat": 46.312235,
    "lon": 11.602902,
    "name_deu": "Predazzo",
    "name_eng": "Predazzo",
    "name_ita": "Predazzo",
    "name_lld": "Predazzo",
    "id_venue_type": "2",
    "url": "https://meteo.report/var/data/forecasts/64744061-31fc-4621-beed-1d6bf7ee63f5.json"
  },
  {
    "id": "658669ac-8ab9-4615-9ff4-8388d7deaf7b",
    "elevation": 569,
    "lat": 46.014275,
    "lon": 11.266347,
    "name_deu": "Tenna",
    "name_eng": "Tenna",
    "name_ita": "Tenna",
    "name_lld": "Tenna",
    "id_venue_type": "2",
    "url": "https://meteo.report/var/data/forecasts/658669ac-8ab9-4615-9ff4-8388d7deaf7b.json"
  },
  {
    "id": "6851b216-83f7-4228-b913-6bb2e56d37a7",
    "elevation": 514,
    "lat": 45.93864,
    "lon": 10.6383,
    "name_deu": "Pieve Di Bono-Prezzo",
    "name_eng": "Pieve Di Bono-Prezzo",
    "name_ita": "Pieve Di Bono-Prezzo",
    "name_lld": "Pieve Di Bono-Prezzo",
    "id_venue_type": "2",
    "url": "https://meteo.report/var/data/forecasts/6851b216-83f7-4228-b913-6bb2e56d37a7.json"
  },
  {
    "id": "68c600e0-078f-41c7-b583-a1faeac71147",
    "elevation": 810,
    "lat": 46.004375,
    "lon": 11.088276,
    "name_deu": "Garniga Terme",
    "name_eng": "Garniga Terme",
    "name_ita": "Garniga Terme",
    "name_lld": "Garniga Terme",
    "id_venue_type": "2",
    "url": "https://meteo.report/var/data/forecasts/68c600e0-078f-41c7-b583-a1faeac71147.json"
  },
  {
    "id": "68cf5878-23f5-4cc1-afa4-2ec595abc9b3",
    "elevation": 757,
    "lat": 46.154974,
    "lon": 11.732546,
    "name_deu": "Canal San Bovo",
    "name_eng": "Canal San Bovo",
    "name_ita": "Canal San Bovo",
    "name_lld": "Canal San Bovo",
    "id_venue_type": "2",
    "url": "https://meteo.report/var/data/forecasts/68cf5878-23f5-4cc1-afa4-2ec595abc9b3.json"
  },
  {
    "id": "693fcdd9-aa41-4e24-a88a-bc76925c3e29",
    "elevation": 452,
    "lat": 46.064812,
    "lon": 11.523904,
    "name_deu": "Castel Ivano",
    "name_eng": "Castel Ivano",
    "name_ita": "Castel Ivano",
    "name_lld": "Castel Ivano",
    "id_venue_type": "2",
    "url": "https://meteo.report/var/data/forecasts/693fcdd9-aa41-4e24-a88a-bc76925c3e29.json"
  },
  {
    "id": "69793d0f-ca9a-4779-9cf8-9db1e2fe3459",
    "elevation": 180,
    "lat": 45.757142,
    "lon": 11.004772,
    "name_deu": "Ala",
    "name_eng": "Ala",
    "name_ita": "Ala",
    "name_lld": "Ala",
    "id_venue_type": "2",
    "url": "https://meteo.report/var/data/forecasts/69793d0f-ca9a-4779-9cf8-9db1e2fe3459.json"
  },
  {
    "id": "6b0810db-3cd3-41b7-9bb7-2be3e8cc9765",
    "elevation": 206,
    "lat": 45.926386,
    "lon": 11.043371,
    "name_deu": "Pomarolo",
    "name_eng": "Pomarolo",
    "name_ita": "Pomarolo",
    "name_lld": "Pomarolo",
    "id_venue_type": "2",
    "url": "https://meteo.report/var/data/forecasts/6b0810db-3cd3-41b7-9bb7-2be3e8cc9765.json"
  },
  {
    "id": "6d49623e-0264-4292-a820-86a5269c7d8d",
    "elevation": 530,
    "lat": 45.978329,
    "lon": 11.068497,
    "name_deu": "Cimone",
    "name_eng": "Cimone",
    "name_ita": "Cimone",
    "name_lld": "Cimone",
    "id_venue_type": "2",
    "url": "https://meteo.report/var/data/forecasts/6d49623e-0264-4292-a820-86a5269c7d8d.json"
  },
  {
    "id": "6dc1016a-0be5-414b-91e4-9c926a895e1e",
    "elevation": 815,
    "lat": 46.0811,
    "lon": 11.555535,
    "name_deu": "Bieno",
    "name_eng": "Bieno",
    "name_ita": "Bieno",
    "name_lld": "Bieno",
    "id_venue_type": "2",
    "url": "https://meteo.report/var/data/forecasts/6dc1016a-0be5-414b-91e4-9c926a895e1e.json"
  },
  {
    "id": "6e2c01ba-5fde-424d-a17f-c6937805c115",
    "elevation": 218,
    "lat": 45.94014,
    "lon": 11.111668,
    "name_deu": "Besenello",
    "name_eng": "Besenello",
    "name_ita": "Besenello",
    "name_lld": "Besenello",
    "id_venue_type": "2",
    "url": "https://meteo.report/var/data/forecasts/6e2c01ba-5fde-424d-a17f-c6937805c115.json"
  },
  {
    "id": "6e5183cd-f272-4cfc-b953-c4d977b5a610",
    "elevation": 650,
    "lat": 46.102334,
    "lon": 10.73829,
    "name_deu": "Spiazzo",
    "name_eng": "Spiazzo",
    "name_ita": "Spiazzo",
    "name_lld": "Spiazzo",
    "id_venue_type": "2",
    "url": "https://meteo.report/var/data/forecasts/6e5183cd-f272-4cfc-b953-c4d977b5a610.json"
  },
  {
    "id": "6ec60a8a-96e5-4312-a077-ca805a03ceb1",
    "elevation": 1003,
    "lat": 46.306907,
    "lon": 10.73753,
    "name_deu": "Ossana",
    "name_eng": "Ossana",
    "name_ita": "Ossana",
    "name_lld": "Ossana",
    "id_venue_type": "2",
    "url": "https://meteo.report/var/data/forecasts/6ec60a8a-96e5-4312-a077-ca805a03ceb1.json"
  },
  {
    "id": "70e50c27-02d5-4d76-a5c4-e2c7d5e83674",
    "elevation": 123,
    "lat": 45.961826,
    "lon": 10.911332,
    "name_deu": "Dro",
    "name_eng": "Dro",
    "name_ita": "Dro",
    "name_lld": "Dro",
    "id_venue_type": "2",
    "url": "https://meteo.report/var/data/forecasts/70e50c27-02d5-4d76-a5c4-e2c7d5e83674.json"
  },
  {
    "id": "714644d6-3fd0-4da3-b80f-860b29689770",
    "elevation": 714,
    "lat": 46.12012,
    "lon": 10.751294,
    "name_deu": "Strembo",
    "name_eng": "Strembo",
    "name_ita": "Strembo",
    "name_lld": "Strembo",
    "id_venue_type": "2",
    "url": "https://meteo.report/var/data/forecasts/714644d6-3fd0-4da3-b80f-860b29689770.json"
  },
  {
    "id": "72ed25ed-9f81-447c-ac3b-c7afeca450cf",
    "elevation": 850,
    "lat": 46.320926,
    "lon": 10.843533,
    "name_deu": "Commezzadura",
    "name_eng": "Commezzadura",
    "name_ita": "Commezzadura",
    "name_lld": "Commezzadura",
    "id_venue_type": "2",
    "url": "https://meteo.report/var/data/forecasts/72ed25ed-9f81-447c-ac3b-c7afeca450cf.json"
  },
  {
    "id": "73cbb4a5-bbcd-4e36-bb87-987adf8928be",
    "elevation": 861,
    "lat": 46.14259,
    "lon": 10.773752,
    "name_deu": "Massimeno",
    "name_eng": "Massimeno",
    "name_ita": "Massimeno",
    "name_lld": "Massimeno",
    "id_venue_type": "2",
    "url": "https://meteo.report/var/data/forecasts/73cbb4a5-bbcd-4e36-bb87-987adf8928be.json"
  },
  {
    "id": "74014907-3b82-42ee-8de9-307a9a962213",
    "elevation": 944,
    "lat": 46.452093,
    "lon": 11.010894,
    "name_deu": "Rumo",
    "name_eng": "Rumo",
    "name_ita": "Rumo",
    "name_lld": "Rumo",
    "id_venue_type": "2",
    "url": "https://meteo.report/var/data/forecasts/74014907-3b82-42ee-8de9-307a9a962213.json"
  },
  {
    "id": "74070c93-f8fb-4aab-9f64-85a5377bbec5",
    "elevation": 725,
    "lat": 45.995752,
    "lon": 11.223937,
    "name_deu": "Altopiano della Vigolana",
    "name_eng": "Altopiano della Vigolana",
    "name_ita": "Altopiano della Vigolana",
    "name_lld": "Altopiano della Vigolana",
    "id_venue_type": "2",
    "url": "https://meteo.report/var/data/forecasts/74070c93-f8fb-4aab-9f64-85a5377bbec5.json"
  },
  {
    "id": "76142ee2-ff91-4a69-b2a7-5a66a73c4bbc",
    "elevation": 843,
    "lat": 46.068808,
    "lon": 11.606925,
    "name_deu": "Pieve Tesino",
    "name_eng": "Pieve Tesino",
    "name_ita": "Pieve Tesino",
    "name_lld": "Pieve Tesino",
    "id_venue_type": "2",
    "url": "https://meteo.report/var/data/forecasts/76142ee2-ff91-4a69-b2a7-5a66a73c4bbc.json"
  },
  {
    "id": "77604dfd-9750-4334-8046-74f59c984a3f",
    "elevation": 710,
    "lat": 46.17695,
    "lon": 11.82961,
    "name_deu": "Primiero San Martino di Castrozza",
    "name_eng": "Primiero San Martino di Castrozza",
    "name_ita": "Primiero San Martino di Castrozza",
    "name_lld": "Primiero San Martino di Castrozza",
    "id_venue_type": "2",
    "url": "https://meteo.report/var/data/forecasts/77604dfd-9750-4334-8046-74f59c984a3f.json"
  },
  {
    "id": "78910558-3ef0-451a-a046-a0a76a419452",
    "elevation": 925,
    "lat": 46.309707,
    "lon": 10.760506,
    "name_deu": "Pellizzano",
    "name_eng": "Pellizzano",
    "name_ita": "Pellizzano",
    "name_lld": "Pellizzano",
    "id_venue_type": "2",
    "url": "https://meteo.report/var/data/forecasts/78910558-3ef0-451a-a046-a0a76a419452.json"
  },
  {
    "id": "79272660-5fe0-49ae-a712-f507241491b1",
    "elevation": 1816,
    "lat": 46.354092,
    "lon": 11.489754,
    "name_deu": "Lavaz\u00e8joch",
    "name_eng": "Lavaz\u00e8 Pass",
    "name_ita": "Passo di Lavaz\u00e8",
    "name_lld": "",
    "id_venue_type": "2",
    "url": "https://meteo.report/var/data/forecasts/79272660-5fe0-49ae-a712-f507241491b1.json"
  },
  {
    "id": "7d5c2086-fcef-41cc-959d-87c4d66c5b5c",
    "elevation": 398,
    "lat": 45.969687,
    "lon": 10.945326,
    "name_deu": "Drena",
    "name_eng": "Drena",
    "name_ita": "Drena",
    "name_lld": "Drena",
    "id_venue_type": "2",
    "url": "https://meteo.report/var/data/forecasts/7d5c2086-fcef-41cc-959d-87c4d66c5b5c.json"
  },
  {
    "id": "7dc0dfec-7061-4962-9645-487778b5e93e",
    "elevation": 740,
    "lat": 46.39632,
    "lon": 11.06593,
    "name_deu": "Novella",
    "name_eng": "Novella",
    "name_ita": "Novella",
    "name_lld": "Novella",
    "id_venue_type": "2",
    "url": "https://meteo.report/var/data/forecasts/7dc0dfec-7061-4962-9645-487778b5e93e.json"
  },
  {
    "id": "800d4724-452a-4641-8f4e-45b0777d4a87",
    "elevation": 179,
    "lat": 45.929542,
    "lon": 11.069781,
    "name_deu": "Nomi",
    "name_eng": "Nomi",
    "name_ita": "Nomi",
    "name_lld": "Nomi",
    "id_venue_type": "2",
    "url": "https://meteo.report/var/data/forecasts/800d4724-452a-4641-8f4e-45b0777d4a87.json"
  },
  {
    "id": "80b006a2-5a18-4a96-9902-8a0535f8910d",
    "elevation": 463,
    "lat": 46.035876,
    "lon": 10.98387,
    "name_deu": "Madruzzo",
    "name_eng": "Madruzzo",
    "name_ita": "Madruzzo",
    "name_lld": "Madruzzo",
    "id_venue_type": "2",
    "url": "https://meteo.report/var/data/forecasts/80b006a2-5a18-4a96-9902-8a0535f8910d.json"
  },
  {
    "id": "847d5c76-dfea-4cc5-9c8f-9fe37823f7ad",
    "elevation": 1522,
    "lat": 46.2238543,
    "lon": 10.8161561,
    "name_deu": "Madonna di Campiglio",
    "name_eng": "Madonna di Campiglio",
    "name_ita": "Madonna di Campiglio",
    "name_lld": "",
    "id_venue_type": "2",
    "url": "https://meteo.report/var/data/forecasts/847d5c76-dfea-4cc5-9c8f-9fe37823f7ad.json"
  },
  {
    "id": "87d9a0fb-b804-410b-81e6-c8bae1978abe",
    "elevation": 375,
    "lat": 46.065088,
    "lon": 11.506524,
    "name_deu": "Scurelle",
    "name_eng": "Scurelle",
    "name_ita": "Scurelle",
    "name_lld": "Scurelle",
    "id_venue_type": "2",
    "url": "https://meteo.report/var/data/forecasts/87d9a0fb-b804-410b-81e6-c8bae1978abe.json"
  },
  {
    "id": "88c72523-d928-49c9-a188-dc9ca57e50d9",
    "elevation": 853,
    "lat": 46.23576,
    "lon": 11.346084,
    "name_deu": "Valfloriana",
    "name_eng": "Valfloriana",
    "name_ita": "Valfloriana",
    "name_lld": "Valfloriana",
    "id_venue_type": "2",
    "url": "https://meteo.report/var/data/forecasts/88c72523-d928-49c9-a188-dc9ca57e50d9.json"
  },
  {
    "id": "88d227e2-11c0-43fd-be1c-d4d0eb82c8a8",
    "elevation": 851,
    "lat": 46.056152,
    "lon": 11.615439,
    "name_deu": "Cinte Tesino",
    "name_eng": "Cinte Tesino",
    "name_ita": "Cinte Tesino",
    "name_lld": "Cinte Tesino",
    "id_venue_type": "2",
    "url": "https://meteo.report/var/data/forecasts/88d227e2-11c0-43fd-be1c-d4d0eb82c8a8.json"
  },
  {
    "id": "8b371ebb-2422-42b6-a2ae-abd3f5dd4256",
    "elevation": 640,
    "lat": 46.366139,
    "lon": 11.074664,
    "name_deu": "Sanzeno",
    "name_eng": "Sanzeno",
    "name_ita": "Sanzeno",
    "name_lld": "Sanzeno",
    "id_venue_type": "2",
    "url": "https://meteo.report/var/data/forecasts/8b371ebb-2422-42b6-a2ae-abd3f5dd4256.json"
  },
  {
    "id": "8e1fdddf-42ad-4c5b-ba85-01d6d082a84a",
    "elevation": 831,
    "lat": 46.221903,
    "lon": 11.31517,
    "name_deu": "Sover",
    "name_eng": "Sover",
    "name_ita": "Sover",
    "name_lld": "Sover",
    "id_venue_type": "2",
    "url": "https://meteo.report/var/data/forecasts/8e1fdddf-42ad-4c5b-ba85-01d6d082a84a.json"
  },
  {
    "id": "90168c47-1b9d-442f-8e83-10cfce7d8ac4",
    "elevation": 1772,
    "lat": 46.406344,
    "lon": 11.609707,
    "name_deu": "Karerpass",
    "name_eng": "Karer Pass",
    "name_ita": "Passo di Costalunga",
    "name_lld": "",
    "id_venue_type": "2",
    "url": "https://meteo.report/var/data/forecasts/90168c47-1b9d-442f-8e83-10cfce7d8ac4.json"
  },
  {
    "id": "912d6356-246f-4ef1-99aa-af9a7cfeed57",
    "elevation": 981,
    "lat": 46.285864,
    "lon": 11.543897,
    "name_deu": "Panchi\u00e0",
    "name_eng": "Panchi\u00e0",
    "name_ita": "Panchi\u00e0",
    "name_lld": "Panchi\u00e0",
    "id_venue_type": "2",
    "url": "https://meteo.report/var/data/forecasts/912d6356-246f-4ef1-99aa-af9a7cfeed57.json"
  },
  {
    "id": "92fcc5d8-0709-4134-8402-e357dd464141",
    "elevation": 525,
    "lat": 45.867257,
    "lon": 11.076661,
    "name_deu": "Trambileno",
    "name_eng": "Trambileno",
    "name_ita": "Trambileno",
    "name_lld": "Trambileno",
    "id_venue_type": "2",
    "url": "https://meteo.report/var/data/forecasts/92fcc5d8-0709-4134-8402-e357dd464141.json"
  },
  {
    "id": "94f28857-7e64-4587-acce-74121e255b83",
    "elevation": 1360,
    "lat": 46.13693,
    "lon": 11.355541,
    "name_deu": "Pal\u00f9 del Fersina",
    "name_eng": "Pal\u00f9 del Fersina",
    "name_ita": "Pal\u00f9 del Fersina",
    "name_lld": "Palai en Bersntol",
    "id_venue_type": "2",
    "url": "https://meteo.report/var/data/forecasts/94f28857-7e64-4587-acce-74121e255b83.json"
  },
  {
    "id": "964becbc-cbeb-46a1-96ea-7bc11dafec89",
    "elevation": 766,
    "lat": 46.32603,
    "lon": 10.8744,
    "name_deu": "Dimaro Folgarida",
    "name_eng": "Dimaro Folgarida",
    "name_ita": "Dimaro Folgarida",
    "name_lld": "Dimaro Folgarida",
    "id_venue_type": "2",
    "url": "https://meteo.report/var/data/forecasts/964becbc-cbeb-46a1-96ea-7bc11dafec89.json"
  },
  {
    "id": "9796fa3e-acff-4f12-8387-73a29173dc91",
    "elevation": 189,
    "lat": 45.916572,
    "lon": 11.064857,
    "name_deu": "Volano",
    "name_eng": "Volano",
    "name_ita": "Volano",
    "name_lld": "Volano",
    "id_venue_type": "2",
    "url": "https://meteo.report/var/data/forecasts/9796fa3e-acff-4f12-8387-73a29173dc91.json"
  },
  {
    "id": "984c06ff-3d8f-4f35-9652-d6718f160a44",
    "elevation": 1372,
    "lat": 46.457175,
    "lon": 11.700143,
    "name_deu": "Mazzin",
    "name_eng": "Mazzin",
    "name_ita": "Mazzin",
    "name_lld": "Mazin",
    "id_venue_type": "2",
    "url": "https://meteo.report/var/data/forecasts/984c06ff-3d8f-4f35-9652-d6718f160a44.json"
  },
  {
    "id": "99672c7a-64a0-4b4a-89d8-1fddc1fd658a",
    "elevation": 1361,
    "lat": 46.415118,
    "lon": 11.205013,
    "name_deu": "Mendelpass",
    "name_eng": "Mendola Pass",
    "name_ita": "Passo della Mendola",
    "name_lld": "",
    "id_venue_type": "2",
    "url": "https://meteo.report/var/data/forecasts/99672c7a-64a0-4b4a-89d8-1fddc1fd658a.json"
  },
  {
    "id": "9e0c829c-1cbd-4050-b1bc-730c052200ca",
    "elevation": 243,
    "lat": 45.887296,
    "lon": 11.008868,
    "name_deu": "Isera",
    "name_eng": "Isera",
    "name_ita": "Isera",
    "name_lld": "Isera",
    "id_venue_type": "2",
    "url": "https://meteo.report/var/data/forecasts/9e0c829c-1cbd-4050-b1bc-730c052200ca.json"
  },
  {
    "id": "9efc0db2-8457-4c25-91ce-6741e38d4d0a",
    "elevation": 433,
    "lat": 46.070354,
    "lon": 11.494048,
    "name_deu": "Carzano",
    "name_eng": "Carzano",
    "name_ita": "Carzano",
    "name_lld": "Carzano",
    "id_venue_type": "2",
    "url": "https://meteo.report/var/data/forecasts/9efc0db2-8457-4c25-91ce-6741e38d4d0a.json"
  },
  {
    "id": "a1126516-2613-40d9-b335-5288d474e649",
    "elevation": 429,
    "lat": 46.274698,
    "lon": 11.04958,
    "name_deu": "Denno",
    "name_eng": "Denno",
    "name_ita": "Denno",
    "name_lld": "Denno",
    "id_venue_type": "2",
    "url": "https://meteo.report/var/data/forecasts/a1126516-2613-40d9-b335-5288d474e649.json"
  },
  {
    "id": "a35c1ca5-1a8a-4db2-89be-8fa4b5c0bee0",
    "elevation": 1184,
    "lat": 46.37586,
    "lon": 11.658595,
    "name_deu": "Moena",
    "name_eng": "Moena",
    "name_ita": "Moena",
    "name_lld": "Moena",
    "id_venue_type": "2",
    "url": "https://meteo.report/var/data/forecasts/a35c1ca5-1a8a-4db2-89be-8fa4b5c0bee0.json"
  },
  {
    "id": "a7121494-e364-4cbb-bf46-6f49a465891f",
    "elevation": 650,
    "lat": 46.072282,
    "lon": 11.471617,
    "name_deu": "Telve di Sopra",
    "name_eng": "Telve di Sopra",
    "name_ita": "Telve di Sopra",
    "name_lld": "Telve di Sopra",
    "id_venue_type": "2",
    "url": "https://meteo.report/var/data/forecasts/a7121494-e364-4cbb-bf46-6f49a465891f.json"
  },
  {
    "id": "a90f3571-dd95-48c3-962d-d59fa9dae704",
    "elevation": 1200,
    "lat": 46.414942,
    "lon": 11.176362,
    "name_deu": "Ruffr\u00e9-Mendola",
    "name_eng": "Ruffr\u00e9-Mendola",
    "name_ita": "Ruffr\u00e9-Mendola",
    "name_lld": "Ruffr\u00e9-Mendola",
    "id_venue_type": "2",
    "url": "https://meteo.report/var/data/forecasts/a90f3571-dd95-48c3-962d-d59fa9dae704.json"
  },
  {
    "id": "adf571fb-dbad-4185-8f4b-456612bb3bb0",
    "elevation": 758,
    "lat": 46.07719,
    "lon": 10.9087,
    "name_deu": "San Lorenzo Dorsino",
    "name_eng": "San Lorenzo Dorsino",
    "name_ita": "San Lorenzo Dorsino",
    "name_lld": "San Lorenzo Dorsino",
    "id_venue_type": "2",
    "url": "https://meteo.report/var/data/forecasts/adf571fb-dbad-4185-8f4b-456612bb3bb0.json"
  },
  {
    "id": "af8e3f7f-2a4f-4ca7-8d2d-662462d9f983",
    "elevation": 971,
    "lat": 46.389809,
    "lon": 11.13576,
    "name_deu": "Amblar-Don",
    "name_eng": "Amblar-Don",
    "name_ita": "Amblar-Don",
    "name_lld": "Amblar-Don",
    "id_venue_type": "2",
    "url": "https://meteo.report/var/data/forecasts/af8e3f7f-2a4f-4ca7-8d2d-662462d9f983.json"
  },
  {
    "id": "b0d0e3fc-01fe-4004-adf0-d560669bc7f4",
    "elevation": 398,
    "lat": 46.0661393,
    "lon": 11.1484313,
    "name_deu": "Trient - H\u00fcgelland",
    "name_eng": "Trento - hills",
    "name_ita": "Trento - collina",
    "name_lld": "",
    "id_venue_type": "2",
    "url": "https://meteo.report/var/data/forecasts/b0d0e3fc-01fe-4004-adf0-d560669bc7f4.json"
  },
  {
    "id": "b33a3c75-6a80-4d69-bfd6-6a83bd863928",
    "elevation": 738,
    "lat": 46.352664,
    "lon": 10.912643,
    "name_deu": "Mal\u00e9",
    "name_eng": "Mal\u00e9",
    "name_ita": "Mal\u00e9",
    "name_lld": "Mal\u00e9",
    "id_venue_type": "2",
    "url": "https://meteo.report/var/data/forecasts/b33a3c75-6a80-4d69-bfd6-6a83bd863928.json"
  },
  {
    "id": "b368e865-4131-40e5-ae4b-4c4503584481",
    "elevation": 964,
    "lat": 46.132749,
    "lon": 11.242478,
    "name_deu": "Baselga di Pin\u00e9",
    "name_eng": "Baselga di Pin\u00e9",
    "name_ita": "Baselga di Pin\u00e9",
    "name_lld": "Baselga di Pin\u00e9",
    "id_venue_type": "2",
    "url": "https://meteo.report/var/data/forecasts/b368e865-4131-40e5-ae4b-4c4503584481.json"
  },
  {
    "id": "b371e1b3-debc-4587-ab19-94b2f9656c09",
    "elevation": 400,
    "lat": 46.03479,
    "lon": 10.892383,
    "name_deu": "Comano Terme",
    "name_eng": "Comano Terme",
    "name_ita": "Comano Terme",
    "name_lld": "Comano Terme",
    "id_venue_type": "2",
    "url": "https://meteo.report/var/data/forecasts/b371e1b3-debc-4587-ab19-94b2f9656c09.json"
  },
  {
    "id": "b3d3402d-30f3-4ca8-b1ef-166b5999e2a3",
    "elevation": 409,
    "lat": 45.848216,
    "lon": 10.580019,
    "name_deu": "Storo",
    "name_eng": "Storo",
    "name_ita": "Storo",
    "name_lld": "Storo",
    "id_venue_type": "2",
    "url": "https://meteo.report/var/data/forecasts/b3d3402d-30f3-4ca8-b1ef-166b5999e2a3.json"
  },
  {
    "id": "b4fd9e10-8888-4832-816c-4b672d98a5fc",
    "elevation": 785,
    "lat": 45.874999,
    "lon": 11.145663,
    "name_deu": "Terragnolo",
    "name_eng": "Terragnolo",
    "name_ita": "Terragnolo",
    "name_lld": "Terragnolo",
    "id_venue_type": "2",
    "url": "https://meteo.report/var/data/forecasts/b4fd9e10-8888-4832-816c-4b672d98a5fc.json"
  },
  {
    "id": "b7f387d0-a2bf-4d68-96f3-041c4a936f8f",
    "elevation": 776,
    "lat": 46.068147,
    "lon": 11.435215,
    "name_deu": "Ronchi Valsugana",
    "name_eng": "Ronchi Valsugana",
    "name_ita": "Ronchi Valsugana",
    "name_lld": "Ronchi Valsugana",
    "id_venue_type": "2",
    "url": "https://meteo.report/var/data/forecasts/b7f387d0-a2bf-4d68-96f3-041c4a936f8f.json"
  },
  {
    "id": "bd81d7f2-efde-4f35-8fb0-41d1b6bb1230",
    "elevation": 721,
    "lat": 46.345033,
    "lon": 10.903697,
    "name_deu": "Croviana",
    "name_eng": "Croviana",
    "name_ita": "Croviana",
    "name_lld": "Croviana",
    "id_venue_type": "2",
    "url": "https://meteo.report/var/data/forecasts/bd81d7f2-efde-4f35-8fb0-41d1b6bb1230.json"
  },
  {
    "id": "c0356f56-c39a-4425-a640-41fe6ff9aa5b",
    "elevation": 629,
    "lat": 46.326728,
    "lon": 11.046709,
    "name_deu": "Ville d'Anaunia",
    "name_eng": "Ville d'Anaunia",
    "name_ita": "Ville d'Anaunia",
    "name_lld": "Ville d'Anaunia",
    "id_venue_type": "2",
    "url": "https://meteo.report/var/data/forecasts/c0356f56-c39a-4425-a640-41fe6ff9aa5b.json"
  },
  {
    "id": "c0808b1a-c732-41f4-94be-79823d15cbe6",
    "elevation": 658,
    "lat": 46.364587,
    "lon": 11.035154,
    "name_deu": "Cles",
    "name_eng": "Cles",
    "name_ita": "Cles",
    "name_lld": "Cles",
    "id_venue_type": "2",
    "url": "https://meteo.report/var/data/forecasts/c0808b1a-c732-41f4-94be-79823d15cbe6.json"
  },
  {
    "id": "c08678b8-99d9-4015-aa50-debe19d971b7",
    "elevation": 251,
    "lat": 46.249819,
    "lon": 11.170204,
    "name_deu": "Rover\u00e9 della Luna",
    "name_eng": "Rover\u00e9 della Luna",
    "name_ita": "Rover\u00e9 della Luna",
    "name_lld": "Rover\u00e9 della Luna",
    "id_venue_type": "2",
    "url": "https://meteo.report/var/data/forecasts/c08678b8-99d9-4015-aa50-debe19d971b7.json"
  },
  {
    "id": "c0963839-ab27-4f97-9915-9833f165347a",
    "elevation": 1448,
    "lat": 46.477022,
    "lon": 11.740526,
    "name_deu": "Campitello di Fassa",
    "name_eng": "Campitello di Fassa",
    "name_ita": "Campitello di Fassa",
    "name_lld": "Ciampedel",
    "id_venue_type": "2",
    "url": "https://meteo.report/var/data/forecasts/c0963839-ab27-4f97-9915-9833f165347a.json"
  },
  {
    "id": "c0db0056-0089-43b3-9de4-474997257d53",
    "elevation": 720,
    "lat": 45.806725,
    "lon": 10.549567,
    "name_deu": "Bondone",
    "name_eng": "Bondone",
    "name_ita": "Bondone",
    "name_lld": "Bondone",
    "id_venue_type": "2",
    "url": "https://meteo.report/var/data/forecasts/c0db0056-0089-43b3-9de4-474997257d53.json"
  },
  {
    "id": "c3278c9f-483f-481c-9593-32fc523e9d42",
    "elevation": 811,
    "lat": 45.914441,
    "lon": 10.602459,
    "name_deu": "Castel Condino",
    "name_eng": "Castel Condino",
    "name_ita": "Castel Condino",
    "name_lld": "Castel Condino",
    "id_venue_type": "2",
    "url": "https://meteo.report/var/data/forecasts/c3278c9f-483f-481c-9593-32fc523e9d42.json"
  },
  {
    "id": "c4a33987-f71e-4497-bb5b-c985e148cafa",
    "elevation": 842,
    "lat": 46.004787,
    "lon": 10.692005,
    "name_deu": "Sella Giudicarie",
    "name_eng": "Sella Giudicarie",
    "name_ita": "Sella Giudicarie",
    "name_lld": "Sella Giudicarie",
    "id_venue_type": "2",
    "url": "https://meteo.report/var/data/forecasts/c4a33987-f71e-4497-bb5b-c985e148cafa.json"
  },
  {
    "id": "c64f96f6-fb15-483a-aa3f-47a8905012ed",
    "elevation": 628,
    "lat": 46.022213,
    "lon": 10.814559,
    "name_deu": "Bleggio Superiore",
    "name_eng": "Bleggio Superiore",
    "name_ita": "Bleggio Superiore",
    "name_lld": "Bleggio Superiore",
    "id_venue_type": "2",
    "url": "https://meteo.report/var/data/forecasts/c64f96f6-fb15-483a-aa3f-47a8905012ed.json"
  },
  {
    "id": "c8bba394-70cc-4aea-bf96-f4ef26cfc152",
    "elevation": 595,
    "lat": 46.005091,
    "lon": 10.735981,
    "name_deu": "Borgo Lares",
    "name_eng": "Borgo Lares",
    "name_ita": "Borgo Lares",
    "name_lld": "Borgo Lares",
    "id_venue_type": "2",
    "url": "https://meteo.report/var/data/forecasts/c8bba394-70cc-4aea-bf96-f4ef26cfc152.json"
  },
  {
    "id": "cb45cce0-36f6-4693-be02-718fe43aef6f",
    "elevation": 535,
    "lat": 46.051599,
    "lon": 11.4099,
    "name_deu": "Roncegno Terme",
    "name_eng": "Roncegno Terme",
    "name_ita": "Roncegno Terme",
    "name_lld": "Roncegno Terme",
    "id_venue_type": "2",
    "url": "https://meteo.report/var/data/forecasts/cb45cce0-36f6-4693-be02-718fe43aef6f.json"
  },
  {
    "id": "cbc65c6e-82aa-4e27-80ab-6a2d56479133",
    "elevation": 1000,
    "lat": 46.43989,
    "lon": 11.13582,
    "name_deu": "Borgo d'Anaunia",
    "name_eng": "Borgo d'Anaunia",
    "name_ita": "Borgo d'Anaunia",
    "name_lld": "Borgo d'Anaunia",
    "id_venue_type": "2",
    "url": "https://meteo.report/var/data/forecasts/cbc65c6e-82aa-4e27-80ab-6a2d56479133.json"
  },
  {
    "id": "cd5e82ae-ccd6-4ed2-a624-bdb2e2c00893",
    "elevation": 482,
    "lat": 46.270306,
    "lon": 11.084512,
    "name_deu": "Ton",
    "name_eng": "Ton",
    "name_ita": "Ton",
    "name_lld": "Ton",
    "id_venue_type": "2",
    "url": "https://meteo.report/var/data/forecasts/cd5e82ae-ccd6-4ed2-a624-bdb2e2c00893.json"
  },
  {
    "id": "ceca8894-abbc-4ba3-b0ee-e8150b7e3a9f",
    "elevation": 660,
    "lat": 45.885345,
    "lon": 10.717427,
    "name_deu": "Ledro",
    "name_eng": "Ledro",
    "name_ita": "Ledro",
    "name_lld": "Ledro",
    "id_venue_type": "2",
    "url": "https://meteo.report/var/data/forecasts/ceca8894-abbc-4ba3-b0ee-e8150b7e3a9f.json"
  },
  {
    "id": "cfce9526-f170-4e30-9e73-f2999c2ca933",
    "elevation": 740,
    "lat": 46.117161,
    "lon": 11.205642,
    "name_deu": "Fornace",
    "name_eng": "Fornace",
    "name_ita": "Fornace",
    "name_lld": "Fornace",
    "id_venue_type": "2",
    "url": "https://meteo.report/var/data/forecasts/cfce9526-f170-4e30-9e73-f2999c2ca933.json"
  },
  {
    "id": "cfd9689c-f280-4175-8a5b-10a3d5122b4b",
    "elevation": 2042,
    "lat": 46.17329,
    "lon": 11.441435,
    "name_deu": "Manghenpass",
    "name_eng": "Manghen Pass",
    "name_ita": "Passo Manghen",
    "name_lld": "",
    "id_venue_type": "2",
    "url": "https://meteo.report/var/data/forecasts/cfd9689c-f280-4175-8a5b-10a3d5122b4b.json"
  },
  {
    "id": "d112b272-4379-46c1-ad6d-6585a167e208",
    "elevation": 723,
    "lat": 46.129577,
    "lon": 10.75703,
    "name_deu": "Caderzone Terme",
    "name_eng": "Caderzone Terme",
    "name_ita": "Caderzone Terme",
    "name_lld": "Caderzone Terme",
    "id_venue_type": "2",
    "url": "https://meteo.report/var/data/forecasts/d112b272-4379-46c1-ad6d-6585a167e208.json"
  },
  {
    "id": "d161b7b6-5e92-4684-88b6-08079f94ca5d",
    "elevation": 741,
    "lat": 46.404963,
    "lon": 11.018735,
    "name_deu": "Livo",
    "name_eng": "Livo",
    "name_ita": "Livo",
    "name_lld": "Livo",
    "id_venue_type": "2",
    "url": "https://meteo.report/var/data/forecasts/d161b7b6-5e92-4684-88b6-08079f94ca5d.json"
  },
  {
    "id": "d1d9e526-6f50-40ef-93de-7b2f78316d7f",
    "elevation": 263,
    "lat": 46.016371,
    "lon": 11.633807,
    "name_deu": "Grigno",
    "name_eng": "Grigno",
    "name_ita": "Grigno",
    "name_lld": "Grigno",
    "id_venue_type": "2",
    "url": "https://meteo.report/var/data/forecasts/d1d9e526-6f50-40ef-93de-7b2f78316d7f.json"
  },
  {
    "id": "d2213d5a-b202-4f8c-b6a9-6a8877812e59",
    "elevation": 1000,
    "lat": 46.289592,
    "lon": 11.511772,
    "name_deu": "Tesero",
    "name_eng": "Tesero",
    "name_ita": "Tesero",
    "name_lld": "Tesero",
    "id_venue_type": "2",
    "url": "https://meteo.report/var/data/forecasts/d2213d5a-b202-4f8c-b6a9-6a8877812e59.json"
  },
  {
    "id": "d2888885-2878-48db-b903-6a1266db3582",
    "elevation": 444,
    "lat": 45.900065,
    "lon": 10.570144,
    "name_deu": "Borgo Chiese",
    "name_eng": "Borgo Chiese",
    "name_ita": "Borgo Chiese",
    "name_lld": "Borgo Chiese",
    "id_venue_type": "2",
    "url": "https://meteo.report/var/data/forecasts/d2888885-2878-48db-b903-6a1266db3582.json"
  },
  {
    "id": "d2aa48d3-72db-4b1f-a694-6457b8d350e2",
    "elevation": 550,
    "lat": 46.070527,
    "lon": 11.477991,
    "name_deu": "Telve",
    "name_eng": "Telve",
    "name_ita": "Telve",
    "name_lld": "Telve",
    "id_venue_type": "2",
    "url": "https://meteo.report/var/data/forecasts/d2aa48d3-72db-4b1f-a694-6457b8d350e2.json"
  },
  {
    "id": "d4919a62-1a1b-4d25-8164-4bd37b915dc0",
    "elevation": 871,
    "lat": 46.064833,
    "lon": 11.633262,
    "name_deu": "Castello Tesino",
    "name_eng": "Castello Tesino",
    "name_ita": "Castello Tesino",
    "name_lld": "Castello Tesino",
    "id_venue_type": "2",
    "url": "https://meteo.report/var/data/forecasts/d4919a62-1a1b-4d25-8164-4bd37b915dc0.json"
  },
  {
    "id": "d4e059ba-a969-4275-9989-922c1a8894ad",
    "elevation": 670,
    "lat": 46.150788,
    "lon": 11.798407,
    "name_deu": "Imer",
    "name_eng": "Imer",
    "name_ita": "Imer",
    "name_lld": "Imer",
    "id_venue_type": "2",
    "url": "https://meteo.report/var/data/forecasts/d4e059ba-a969-4275-9989-922c1a8894ad.json"
  },
  {
    "id": "d5c94af4-b6e7-42ff-9bd0-79e2269856cd",
    "elevation": 1611,
    "lat": 45.876628,
    "lon": 11.214937,
    "name_deu": "Coe Pass",
    "name_eng": "Coe Pass",
    "name_ita": "Passo Coe",
    "name_lld": "",
    "id_venue_type": "2",
    "url": "https://meteo.report/var/data/forecasts/d5c94af4-b6e7-42ff-9bd0-79e2269856cd.json"
  },
  {
    "id": "d60b9984-0f56-4456-97ce-f6a15c4f2cc7",
    "elevation": 925,
    "lat": 46.108133,
    "lon": 11.302522,
    "name_deu": "Sant'Orsola Terme",
    "name_eng": "Sant'Orsola Terme",
    "name_ita": "Sant'Orsola Terme",
    "name_lld": "Sant'Orsola Terme",
    "id_venue_type": "2",
    "url": "https://meteo.report/var/data/forecasts/d60b9984-0f56-4456-97ce-f6a15c4f2cc7.json"
  },
  {
    "id": "d7b1e541-42dc-4d4d-8741-3d784e5cd37a",
    "elevation": 469,
    "lat": 46.088333,
    "lon": 11.180188,
    "name_deu": "Civezzano",
    "name_eng": "Civezzano",
    "name_ita": "Civezzano",
    "name_lld": "Civezzano",
    "id_venue_type": "2",
    "url": "https://meteo.report/var/data/forecasts/d7b1e541-42dc-4d4d-8741-3d784e5cd37a.json"
  },
  {
    "id": "d84f35fa-b3dd-4172-b3ac-bf0989f17d43",
    "elevation": 91,
    "lat": 45.918657,
    "lon": 10.885328,
    "name_deu": "Arco",
    "name_eng": "Arco",
    "name_ita": "Arco",
    "name_lld": "Arco",
    "id_venue_type": "2",
    "url": "https://meteo.report/var/data/forecasts/d84f35fa-b3dd-4172-b3ac-bf0989f17d43.json"
  },
  {
    "id": "db168a1a-c18a-4e83-b3c3-26a077856927",
    "elevation": 232,
    "lat": 46.139751,
    "lon": 11.111569,
    "name_deu": "Lavis",
    "name_eng": "Lavis",
    "name_ita": "Lavis",
    "name_lld": "Lavis",
    "id_venue_type": "2",
    "url": "https://meteo.report/var/data/forecasts/db168a1a-c18a-4e83-b3c3-26a077856927.json"
  },
  {
    "id": "db8d25d3-f7e9-4cf7-8e98-dc57e6c40a11",
    "elevation": 227,
    "lat": 46.213474,
    "lon": 11.090578,
    "name_deu": "Mezzolombardo",
    "name_eng": "Mezzolombardo",
    "name_ita": "Mezzolombardo",
    "name_lld": "Mezzolombardo",
    "id_venue_type": "2",
    "url": "https://meteo.report/var/data/forecasts/db8d25d3-f7e9-4cf7-8e98-dc57e6c40a11.json"
  },
  {
    "id": "dbbf9c7a-3453-4027-8f73-ae15d18b8e18",
    "elevation": 428,
    "lat": 45.919861,
    "lon": 10.832587,
    "name_deu": "Tenno",
    "name_eng": "Tenno",
    "name_ita": "Tenno",
    "name_lld": "Tenno",
    "id_venue_type": "2",
    "url": "https://meteo.report/var/data/forecasts/dbbf9c7a-3453-4027-8f73-ae15d18b8e18.json"
  },
  {
    "id": "dc868eb0-95aa-4b6e-b7ed-b2dbf3b68509",
    "elevation": 1166,
    "lat": 45.91556,
    "lon": 11.172458,
    "name_deu": "Folgaria",
    "name_eng": "Folgaria",
    "name_ita": "Folgaria",
    "name_lld": "Folgaria",
    "id_venue_type": "2",
    "url": "https://meteo.report/var/data/forecasts/dc868eb0-95aa-4b6e-b7ed-b2dbf3b68509.json"
  },
  {
    "id": "df212b06-b41f-44cd-947b-90beffa068d0",
    "elevation": 667,
    "lat": 46.17525,
    "lon": 11.2207,
    "name_deu": "Cembra Lisignago",
    "name_eng": "Cembra Lisignago",
    "name_ita": "Cembra Lisignago",
    "name_lld": "Cembra Lisignago",
    "id_venue_type": "2",
    "url": "https://meteo.report/var/data/forecasts/df212b06-b41f-44cd-947b-90beffa068d0.json"
  },
  {
    "id": "e0c04e2d-8221-48d3-92b9-56e26e743213",
    "elevation": 194,
    "lat": 46.071322,
    "lon": 11.120295,
    "name_deu": "Trient",
    "name_eng": "Trento",
    "name_ita": "Trento",
    "name_lld": "Trent",
    "id_venue_type": "2",
    "url": "https://meteo.report/var/data/forecasts/e0c04e2d-8221-48d3-92b9-56e26e743213.json"
  },
  {
    "id": "e15540a9-eb29-446c-a76e-bf36af41e2ac",
    "elevation": 1062,
    "lat": 46.194841,
    "lon": 11.943316,
    "name_deu": "Sagron Mis",
    "name_eng": "Sagron Mis",
    "name_ita": "Sagron Mis",
    "name_lld": "Sagron Mis",
    "id_venue_type": "2",
    "url": "https://meteo.report/var/data/forecasts/e15540a9-eb29-446c-a76e-bf36af41e2ac.json"
  },
  {
    "id": "e312b687-6dcc-4b6e-8693-4276bb63ddad",
    "elevation": 852,
    "lat": 46.089358,
    "lon": 11.296764,
    "name_deu": "Frassilongo",
    "name_eng": "Frassilongo",
    "name_ita": "Frassilongo",
    "name_lld": "Garait",
    "id_venue_type": "2",
    "url": "https://meteo.report/var/data/forecasts/e312b687-6dcc-4b6e-8693-4276bb63ddad.json"
  },
  {
    "id": "e37d02f6-081c-40a6-a68a-ae3294c6c04a",
    "elevation": 385,
    "lat": 46.100676,
    "lon": 11.009286,
    "name_deu": "Vallelaghi",
    "name_eng": "Vallelaghi",
    "name_ita": "Vallelaghi",
    "name_lld": "Vallelaghi",
    "id_venue_type": "2",
    "url": "https://meteo.report/var/data/forecasts/e37d02f6-081c-40a6-a68a-ae3294c6c04a.json"
  },
  {
    "id": "e3927cc1-1e18-48bf-bf7e-c8eeedb32348",
    "elevation": 206,
    "lat": 46.15179,
    "lon": 11.09736,
    "name_deu": "Terre d'Adige",
    "name_eng": "Terre d'Adige",
    "name_ita": "Terre d'Adige",
    "name_lld": "Terre d'Adige",
    "id_venue_type": "2",
    "url": "https://meteo.report/var/data/forecasts/e3927cc1-1e18-48bf-bf7e-c8eeedb32348.json"
  },
  {
    "id": "e55526a6-bd80-478e-b484-387808f5746e",
    "elevation": 755,
    "lat": 46.361498,
    "lon": 10.926614,
    "name_deu": "Terzolas",
    "name_eng": "Terzolas",
    "name_ita": "Terzolas",
    "name_lld": "Terzolas",
    "id_venue_type": "2",
    "url": "https://meteo.report/var/data/forecasts/e55526a6-bd80-478e-b484-387808f5746e.json"
  },
  {
    "id": "e5daca38-e869-4318-95a7-c8876f953773",
    "elevation": 973,
    "lat": 46.4085,
    "lon": 11.138267,
    "name_deu": "Cavareno",
    "name_eng": "Cavareno",
    "name_ita": "Cavareno",
    "name_lld": "Cavareno",
    "id_venue_type": "2",
    "url": "https://meteo.report/var/data/forecasts/e5daca38-e869-4318-95a7-c8876f953773.json"
  },
  {
    "id": "ed52d336-4e85-40a4-bf6d-8ff3191962b2",
    "elevation": 209,
    "lat": 45.977951,
    "lon": 11.092142,
    "name_deu": "Aldeno",
    "name_eng": "Aldeno",
    "name_ita": "Aldeno",
    "name_lld": "Aldeno",
    "id_venue_type": "2",
    "url": "https://meteo.report/var/data/forecasts/ed52d336-4e85-40a4-bf6d-8ff3191962b2.json"
  },
  {
    "id": "eed1a270-9d17-46ce-92d1-b1ee967ed96a",
    "elevation": 480,
    "lat": 45.994305,
    "lon": 11.263311,
    "name_deu": "Caldonazzo",
    "name_eng": "Caldonazzo",
    "name_ita": "Caldonazzo",
    "name_lld": "Caldonazzo",
    "id_venue_type": "2",
    "url": "https://meteo.report/var/data/forecasts/eed1a270-9d17-46ce-92d1-b1ee967ed96a.json"
  },
  {
    "id": "f26db29f-6699-47fb-bd09-f6b151021187",
    "elevation": 697,
    "lat": 46.365291,
    "lon": 10.943121,
    "name_deu": "Caldes",
    "name_eng": "Caldes",
    "name_ita": "Caldes",
    "name_lld": "Caldes",
    "id_venue_type": "2",
    "url": "https://meteo.report/var/data/forecasts/f26db29f-6699-47fb-bd09-f6b151021187.json"
  },
  {
    "id": "f448d23e-660e-4556-af4a-b78b5bd3ab24",
    "elevation": 556,
    "lat": 46.062702,
    "lon": 10.783208,
    "name_deu": "Tre Ville",
    "name_eng": "Tre Ville",
    "name_ita": "Tre Ville",
    "name_lld": "Tre Ville",
    "id_venue_type": "2",
    "url": "https://meteo.report/var/data/forecasts/f448d23e-660e-4556-af4a-b78b5bd3ab24.json"
  },
  {
    "id": "f7552384-07ce-4946-b3fe-625fc704ad75",
    "elevation": 187,
    "lat": 45.934223,
    "lon": 11.094362,
    "name_deu": "Calliano",
    "name_eng": "Calliano",
    "name_ita": "Calliano",
    "name_lld": "Calliano",
    "id_venue_type": "2",
    "url": "https://meteo.report/var/data/forecasts/f7552384-07ce-4946-b3fe-625fc704ad75.json"
  },
  {
    "id": "f911c3d8-7545-4738-96bc-2f7859674fb8",
    "elevation": 669,
    "lat": 46.004774,
    "lon": 10.842255,
    "name_deu": "Fiav\u00e9",
    "name_eng": "Fiav\u00e9",
    "name_ita": "Fiav\u00e9",
    "name_lld": "Fiav\u00e9",
    "id_venue_type": "2",
    "url": "https://meteo.report/var/data/forecasts/f911c3d8-7545-4738-96bc-2f7859674fb8.json"
  },
  {
    "id": "fbb753cb-9afb-4090-a1f0-2e9531c0b60c",
    "elevation": 1652,
    "lat": 46.040625,
    "lon": 11.05849,
    "name_deu": "Trient - Monte Bondone",
    "name_eng": "Trento - Monte Bondone",
    "name_ita": "Trento - Monte Bondone",
    "name_lld": "",
    "id_venue_type": "2",
    "url": "https://meteo.report/var/data/forecasts/fbb753cb-9afb-4090-a1f0-2e9531c0b60c.json"
  },
  {
    "id": "14438ac2-9c39-474b-a239-8389a125035f",
    "elevation": 1500,
    "lat": 46.242,
    "lon": 11.647,
    "name_deu": "Lagorai, Fleimstaler Alpen und Dolomiten - 1500 m",
    "name_eng": "Lagorai, Fleimstal Alps and Dolomites - 1500 m",
    "name_ita": "Lagorai, Dolomiti di Fiemme e di Fassa - 1500 m",
    "name_lld": "",
    "id_venue_type": "5",
    "url": "https://meteo.report/var/data/mountains/14438ac2-9c39-474b-a239-8389a125035f.json"
  },
  {
    "id": "176eddd6-a68f-4c96-bd17-db797b950a9d",
    "elevation": 3000,
    "lat": 46.109,
    "lon": 11.101,
    "name_deu": "Etsch-, Nons und Cembratal, Monte Bondone, Paganella-Gruppe - 3000 m",
    "name_eng": "Adige, Non and Cembra Valleys, Monte Bondone, Paganella Group - 3000 m",
    "name_ita": "Valli dell'Adige, di Non e di Cembra, Monte Bondone, gruppo della Paganella - 3000 m",
    "name_lld": "",
    "id_venue_type": "5",
    "url": "https://meteo.report/var/data/mountains/176eddd6-a68f-4c96-bd17-db797b950a9d.json"
  },
  {
    "id": "1a2ebde1-ff88-463f-8acb-83c99969b1c3",
    "elevation": 1500,
    "lat": 46.049,
    "lon": 10.62,
    "name_deu": "Adamello-Presanella-Gruppe - 1500 m",
    "name_eng": "Adamello and Presanella Groups - 1500 m",
    "name_ita": "Gruppi dell'Adamello e della Presanella - 1500 m",
    "name_lld": "",
    "id_venue_type": "5",
    "url": "https://meteo.report/var/data/mountains/1a2ebde1-ff88-463f-8acb-83c99969b1c3.json"
  },
  {
    "id": "1f103edc-b70f-4894-a1e5-223f10cef2fa",
    "elevation": 3000,
    "lat": 46.208,
    "lon": 10.903,
    "name_deu": "Brentner\u00a0Dolomiten - 3000 m",
    "name_eng": "Brenta Dolomites - 3000 m",
    "name_ita": "Dolomiti di Brenta - 3000 m",
    "name_lld": "",
    "id_venue_type": "5",
    "url": "https://meteo.report/var/data/mountains/1f103edc-b70f-4894-a1e5-223f10cef2fa.json"
  },
  {
    "id": "29c8733c-5647-491e-a6d6-39c272bb696b",
    "elevation": 2500,
    "lat": 46.049,
    "lon": 10.62,
    "name_deu": "Adamello-Presanella-Gruppe - 2500 m",
    "name_eng": "Adamello and Presanella Groups - 2500 m",
    "name_ita": "Gruppi dell'Adamello e della Presanella - 2500 m",
    "name_lld": "",
    "id_venue_type": "5",
    "url": "https://meteo.report/var/data/mountains/29c8733c-5647-491e-a6d6-39c272bb696b.json"
  },
  {
    "id": "30b65728-b7f1-41b7-977d-42ae7798d081",
    "elevation": 3000,
    "lat": 46.049,
    "lon": 10.62,
    "name_deu": "Adamello-Presanella-Gruppe - 3000 m",
    "name_eng": "Adamello and Presanella Groups - 3000 m",
    "name_ita": "Gruppi dell'Adamello e della Presanella - 3000 m",
    "name_lld": "",
    "id_venue_type": "5",
    "url": "https://meteo.report/var/data/mountains/30b65728-b7f1-41b7-977d-42ae7798d081.json"
  },
  {
    "id": "338b1307-cc1b-4929-a503-46adbedb3a45",
    "elevation": 2000,
    "lat": 46.208,
    "lon": 10.903,
    "name_deu": "Brentner\u00a0Dolomiten - 2000 m",
    "name_eng": "Brenta Dolomites - 2000 m",
    "name_ita": "Dolomiti di Brenta - 2000 m",
    "name_lld": "",
    "id_venue_type": "5",
    "url": "https://meteo.report/var/data/mountains/338b1307-cc1b-4929-a503-46adbedb3a45.json"
  },
  {
    "id": "34f7d87c-8373-4fd9-a4ee-b1b73144e6a7",
    "elevation": 3000,
    "lat": 46.361,
    "lon": 10.768,
    "name_deu": "Cevedale-Gruppe und Ilmenkamm - 3000 m",
    "name_eng": "Cevedale Group and Maddalene Chain - 3000 m",
    "name_ita": "Gruppo del Cevedale e Catena delle Maddalene - 3000 m",
    "name_lld": "",
    "id_venue_type": "5",
    "url": "https://meteo.report/var/data/mountains/34f7d87c-8373-4fd9-a4ee-b1b73144e6a7.json"
  },
  {
    "id": "3930b0dd-a14d-4658-84af-ec71df5e0bec",
    "elevation": 3000,
    "lat": 46.242,
    "lon": 11.647,
    "name_deu": "Lagorai, Fleimstaler Alpen und Dolomiten - 3000 m",
    "name_eng": "Lagorai, Fleimstal Alps and Dolomites - 3000 m",
    "name_ita": "Lagorai, Dolomiti di Fiemme e di Fassa - 3000 m",
    "name_lld": "",
    "id_venue_type": "5",
    "url": "https://meteo.report/var/data/mountains/3930b0dd-a14d-4658-84af-ec71df5e0bec.json"
  },
  {
    "id": "3ff421b6-233e-4f3a-970d-8456a66fa315",
    "elevation": 2000,
    "lat": 46.109,
    "lon": 11.101,
    "name_deu": "Etsch-, Nons und Cembratal, Monte Bondone, Paganella-Gruppe - 2000 m",
    "name_eng": "Adige, Non and Cembra Valleys, Monte Bondone, Paganella Group - 2000 m",
    "name_ita": "Valli dell'Adige, di Non e di Cembra, Monte Bondone, gruppo della Paganella - 2000 m",
    "name_lld": "",
    "id_venue_type": "5",
    "url": "https://meteo.report/var/data/mountains/3ff421b6-233e-4f3a-970d-8456a66fa315.json"
  },
  {
    "id": "47675c3a-a3bf-4768-ac0a-d03468732aa7",
    "elevation": 1500,
    "lat": 46.208,
    "lon": 10.903,
    "name_deu": "Brentner\u00a0Dolomiten - 1500 m",
    "name_eng": "Brenta Dolomites - 1500 m",
    "name_ita": "Dolomiti di Brenta - 1500 m",
    "name_lld": "",
    "id_venue_type": "5",
    "url": "https://meteo.report/var/data/mountains/47675c3a-a3bf-4768-ac0a-d03468732aa7.json"
  },
  {
    "id": "485df9c2-83df-4915-8e7e-31c02951303a",
    "elevation": 1500,
    "lat": 45.925,
    "lon": 10.769,
    "name_deu": "Ledro-Voralpen und Judikarien - 1500 m",
    "name_eng": "Ledro Prealps and Giudicarie - 1500 m",
    "name_ita": "Prealpi di Ledro e Giudicarie - 1500 m",
    "name_lld": "",
    "id_venue_type": "5",
    "url": "https://meteo.report/var/data/mountains/485df9c2-83df-4915-8e7e-31c02951303a.json"
  },
  {
    "id": "4aaa7281-668a-4976-92cf-d2c051944020",
    "elevation": 2500,
    "lat": 46.361,
    "lon": 10.768,
    "name_deu": "Cevedale-Gruppe und Ilmenkamm - 2500 m",
    "name_eng": "Cevedale Group and Maddalene Chain - 2500 m",
    "name_ita": "Gruppo del Cevedale e Catena delle Maddalene - 2500 m",
    "name_lld": "",
    "id_venue_type": "5",
    "url": "https://meteo.report/var/data/mountains/4aaa7281-668a-4976-92cf-d2c051944020.json"
  },
  {
    "id": "50a46311-6b79-4e96-99c1-90778bd736ea",
    "elevation": 2500,
    "lat": 46.109,
    "lon": 11.101,
    "name_deu": "Etsch-, Nons und Cembratal, Monte Bondone, Paganella-Gruppe - 2500 m",
    "name_eng": "Adige, Non and Cembra Valleys, Monte Bondone, Paganella Group - 2500 m",
    "name_ita": "Valli dell'Adige, di Non e di Cembra, Monte Bondone, gruppo della Paganella - 2500 m",
    "name_lld": "",
    "id_venue_type": "5",
    "url": "https://meteo.report/var/data/mountains/50a46311-6b79-4e96-99c1-90778bd736ea.json"
  },
  {
    "id": "5319ff48-49a3-4822-9891-2daeb06bff22",
    "elevation": 2000,
    "lat": 45.925,
    "lon": 10.769,
    "name_deu": "Ledro-Voralpen und Judikarien - 2000 m",
    "name_eng": "Ledro Prealps and Giudicarie - 2000 m",
    "name_ita": "Prealpi di Ledro e Giudicarie - 2000 m",
    "name_lld": "",
    "id_venue_type": "5",
    "url": "https://meteo.report/var/data/mountains/5319ff48-49a3-4822-9891-2daeb06bff22.json"
  },
  {
    "id": "53c7a6bf-406e-4a69-a5a7-2a509b26e1ff",
    "elevation": 2000,
    "lat": 46.361,
    "lon": 10.768,
    "name_deu": "Cevedale-Gruppe und Ilmenkamm - 2000 m",
    "name_eng": "Cevedale Group and Maddalene Chain - 2000 m",
    "name_ita": "Gruppo del Cevedale e Catena delle Maddalene - 2000 m",
    "name_lld": "",
    "id_venue_type": "5",
    "url": "https://meteo.report/var/data/mountains/53c7a6bf-406e-4a69-a5a7-2a509b26e1ff.json"
  },
  {
    "id": "553930e5-fe38-482a-9a86-e02591a3bc10",
    "elevation": 2500,
    "lat": 46.208,
    "lon": 10.903,
    "name_deu": "Brentner\u00a0Dolomiten - 2500 m",
    "name_eng": "Brenta Dolomites - 2500 m",
    "name_ita": "Dolomiti di Brenta - 2500 m",
    "name_lld": "",
    "id_venue_type": "5",
    "url": "https://meteo.report/var/data/mountains/553930e5-fe38-482a-9a86-e02591a3bc10.json"
  },
  {
    "id": "73fa7229-c343-4d22-80aa-68f460313c93",
    "elevation": 1500,
    "lat": 46.109,
    "lon": 11.101,
    "name_deu": "Etsch-, Nons und Cembratal, Monte Bondone, Paganella-Gruppe - 1500 m",
    "name_eng": "Adige, Non and Cembra Valleys, Monte Bondone, Paganella Group - 1500 m",
    "name_ita": "Valli dell'Adige, di Non e di Cembra, Monte Bondone, gruppo della Paganella - 1500 m",
    "name_lld": "",
    "id_venue_type": "5",
    "url": "https://meteo.report/var/data/mountains/73fa7229-c343-4d22-80aa-68f460313c93.json"
  },
  {
    "id": "90227b1b-f991-4442-aa73-86b9ae63e6d5",
    "elevation": 2000,
    "lat": 46.049,
    "lon": 10.62,
    "name_deu": "Adamello-Presanella-Gruppe - 2000 m",
    "name_eng": "Adamello and Presanella Groups - 2000 m",
    "name_ita": "Gruppi dell'Adamello e della Presanella - 2000 m",
    "name_lld": "",
    "id_venue_type": "5",
    "url": "https://meteo.report/var/data/mountains/90227b1b-f991-4442-aa73-86b9ae63e6d5.json"
  },
  {
    "id": "9937bca2-bec3-4e34-bbdf-4b17842c46f7",
    "elevation": 3000,
    "lat": 45.918,
    "lon": 11.221,
    "name_deu": "Kleine Dolomiten, Pasubio, Zimbern-Hochebene - 3000 m",
    "name_eng": "Little Dolomites, Pasubio, Cimbrian Plateaus - 3000 m",
    "name_ita": "Piccole Dolomiti, Pasubio, Altipiani Cimbri - 3000 m",
    "name_lld": "",
    "id_venue_type": "5",
    "url": "https://meteo.report/var/data/mountains/9937bca2-bec3-4e34-bbdf-4b17842c46f7.json"
  },
  {
    "id": "9b24e990-6e5c-458f-88f6-085b86ad7ade",
    "elevation": 2500,
    "lat": 45.918,
    "lon": 11.221,
    "name_deu": "Kleine Dolomiten, Pasubio, Zimbern-Hochebene - 2500 m",
    "name_eng": "Little Dolomites, Pasubio, Cimbrian Plateaus - 2500 m",
    "name_ita": "Piccole Dolomiti, Pasubio, Altipiani Cimbri - 2500 m",
    "name_lld": "",
    "id_venue_type": "5",
    "url": "https://meteo.report/var/data/mountains/9b24e990-6e5c-458f-88f6-085b86ad7ade.json"
  },
  {
    "id": "a2d361d8-cf6e-483f-ac37-443b5e5b1c3c",
    "elevation": 2000,
    "lat": 46.242,
    "lon": 11.647,
    "name_deu": "Lagorai, Fleimstaler Alpen und Dolomiten - 2000 m",
    "name_eng": "Lagorai, Fleimstal Alps and Dolomites - 2000 m",
    "name_ita": "Lagorai, Dolomiti di Fiemme e di Fassa - 2000 m",
    "name_lld": "",
    "id_venue_type": "5",
    "url": "https://meteo.report/var/data/mountains/a2d361d8-cf6e-483f-ac37-443b5e5b1c3c.json"
  },
  {
    "id": "b2dab299-d233-4413-b1a1-785b525c3863",
    "elevation": 2500,
    "lat": 45.925,
    "lon": 10.769,
    "name_deu": "Ledro-Voralpen und Judikarien - 2500 m",
    "name_eng": "Ledro Prealps and Giudicarie - 2500 m",
    "name_ita": "Prealpi di Ledro e Giudicarie - 2500 m",
    "name_lld": "",
    "id_venue_type": "5",
    "url": "https://meteo.report/var/data/mountains/b2dab299-d233-4413-b1a1-785b525c3863.json"
  },
  {
    "id": "bb88707c-8212-4bf7-9308-aec2fceaa130",
    "elevation": 2000,
    "lat": 45.918,
    "lon": 11.221,
    "name_deu": "Kleine Dolomiten, Pasubio, Zimbern-Hochebene - 2000 m",
    "name_eng": "Little Dolomites, Pasubio, Cimbrian Plateaus - 2000 m",
    "name_ita": "Piccole Dolomiti, Pasubio, Altipiani Cimbri - 2000 m",
    "name_lld": "",
    "id_venue_type": "5",
    "url": "https://meteo.report/var/data/mountains/bb88707c-8212-4bf7-9308-aec2fceaa130.json"
  },
  {
    "id": "c34ed7ed-1d12-4e5a-a719-f7dbf93aa816",
    "elevation": 2500,
    "lat": 46.242,
    "lon": 11.647,
    "name_deu": "Lagorai, Fleimstaler Alpen und Dolomiten - 2500 m",
    "name_eng": "Lagorai, Fleimstal Alps and Dolomites - 2500 m",
    "name_ita": "Lagorai, Dolomiti di Fiemme e di Fassa - 2500 m",
    "name_lld": "",
    "id_venue_type": "5",
    "url": "https://meteo.report/var/data/mountains/c34ed7ed-1d12-4e5a-a719-f7dbf93aa816.json"
  },
  {
    "id": "c5f8c52b-8926-4e87-8668-84f4854381e6",
    "elevation": 1500,
    "lat": 45.918,
    "lon": 11.221,
    "name_deu": "Kleine Dolomiten, Pasubio, Zimbern-Hochebene - 1500 m",
    "name_eng": "Little Dolomites, Pasubio, Cimbrian Plateaus - 1500 m",
    "name_ita": "Piccole Dolomiti, Pasubio, Altipiani Cimbri - 1500 m",
    "name_lld": "",
    "id_venue_type": "5",
    "url": "https://meteo.report/var/data/mountains/c5f8c52b-8926-4e87-8668-84f4854381e6.json"
  },
  {
    "id": "d6e0fd37-d69a-4beb-9439-1e8bbe5ef57b",
    "elevation": 3000,
    "lat": 45.925,
    "lon": 10.769,
    "name_deu": "Ledro-Voralpen und Judikarien - 3000 m",
    "name_eng": "Ledro Prealps and Giudicarie - 3000 m",
    "name_ita": "Prealpi di Ledro e Giudicarie - 3000 m",
    "name_lld": "",
    "id_venue_type": "5",
    "url": "https://meteo.report/var/data/mountains/d6e0fd37-d69a-4beb-9439-1e8bbe5ef57b.json"
  },
  {
    "id": "ebcc56d2-4560-4a31-a308-8dbb29999c10",
    "elevation": 1500,
    "lat": 46.361,
    "lon": 10.768,
    "name_deu": "Cevedale-Gruppe und Ilmenkamm - 1500 m",
    "name_eng": "Cevedale Group and Maddalene Chain - 1500 m",
    "name_ita": "Gruppo del Cevedale e Catena delle Maddalene - 1500 m",
    "name_lld": "",
    "id_venue_type": "5",
    "url": "https://meteo.report/var/data/mountains/ebcc56d2-4560-4a31-a308-8dbb29999c10.json"
  },
  {
    "id": "0150bb91-33f5-433e-b59e-02eab6da35f0",
    "elevation": 597,
    "lat": 46.192591,
    "lon": 11.161751,
    "name_deu": "Faedo",
    "name_eng": "Faedo",
    "name_ita": "Faedo",
    "name_lld": "Faedo",
    "id_venue_type": "8",
    "url": "https://meteo.report/var/data/forecasts/150b31ac-970a-460a-91f5-603f8222cfde.json"
  },
  {
    "id": "04ac75f8-bf6b-4c35-afab-aa9abd267373",
    "elevation": 955,
    "lat": 46.059072,
    "lon": 10.7517,
    "name_deu": "Montagne",
    "name_eng": "Montagne",
    "name_ita": "Montagne",
    "name_lld": "Montagne",
    "id_venue_type": "8",
    "url": "https://meteo.report/var/data/forecasts/f448d23e-660e-4556-af4a-b78b5bd3ab24.json"
  },
  {
    "id": "04f98db0-4dfc-4e6a-a9f5-27e0efde3139",
    "elevation": 629,
    "lat": 46.326547,
    "lon": 11.022765,
    "name_deu": "Tuenno",
    "name_eng": "Tuenno",
    "name_ita": "Tuenno",
    "name_lld": "Tuenno",
    "id_venue_type": "8",
    "url": "https://meteo.report/var/data/forecasts/c0356f56-c39a-4425-a640-41fe6ff9aa5b.json"
  },
  {
    "id": "09980745-c441-409b-965a-57d805dda4f2",
    "elevation": 773,
    "lat": 46.207216,
    "lon": 11.266891,
    "name_deu": "Valda",
    "name_eng": "Valda",
    "name_ita": "Valda",
    "name_lld": "Valda",
    "id_venue_type": "8",
    "url": "https://meteo.report/var/data/forecasts/37bb2112-8b78-4e67-a14b-a8c1841c0804.json"
  },
  {
    "id": "0a0b81d9-a83d-4258-9147-8a12e495a02a",
    "elevation": 190,
    "lat": 45.878385,
    "lon": 11.035506,
    "name_deu": "Lizzanella",
    "name_eng": "Lizzanella",
    "name_ita": "Lizzanella",
    "name_lld": "Lizzanella",
    "id_venue_type": "8",
    "url": "https://meteo.report/var/data/forecasts/6064a14c-3483-44c4-a64c-45b471b4783c.json"
  },
  {
    "id": "0ba89097-85f4-4fa8-b4d8-cbc6531d3bf0",
    "elevation": 778,
    "lat": 46.416552,
    "lon": 11.084684,
    "name_deu": "Cloz",
    "name_eng": "Cloz",
    "name_ita": "Cloz",
    "name_lld": "Cloz",
    "id_venue_type": "8",
    "url": "https://meteo.report/var/data/forecasts/7dc0dfec-7061-4962-9645-487778b5e93e.json"
  },
  {
    "id": "0d77c740-04ae-4243-81a3-137fce4340dd",
    "elevation": 667,
    "lat": 45.889929,
    "lon": 10.732138,
    "name_deu": "Pieve di Ledro",
    "name_eng": "Pieve di Ledro",
    "name_ita": "Pieve di Ledro",
    "name_lld": "Pieve di Ledro",
    "id_venue_type": "8",
    "url": "https://meteo.report/var/data/forecasts/ceca8894-abbc-4ba3-b0ee-e8150b7e3a9f.json"
  },
  {
    "id": "0d8c8802-965a-463b-9dfe-a0ee6c955502",
    "elevation": 400,
    "lat": 46.035598,
    "lon": 10.873566,
    "name_deu": "Ponte Arche",
    "name_eng": "Ponte Arche",
    "name_ita": "Ponte Arche",
    "name_lld": "Ponte Arche",
    "id_venue_type": "8",
    "url": "https://meteo.report/var/data/forecasts/b371e1b3-debc-4587-ab19-94b2f9656c09.json"
  },
  {
    "id": "11f5f106-dcff-4f25-b876-c19610d40d98",
    "elevation": 1186,
    "lat": 46.300864,
    "lon": 11.447845,
    "name_deu": "Daiano",
    "name_eng": "Daiano",
    "name_ita": "Daiano",
    "name_lld": "Daiano",
    "id_venue_type": "8",
    "url": "https://meteo.report/var/data/forecasts/493f942b-0f26-4266-888d-77382b00569e.json"
  },
  {
    "id": "1281f163-f823-4a3b-9b27-675298953bf1",
    "elevation": 341,
    "lat": 46.122649,
    "lon": 11.117021,
    "name_deu": "Meano",
    "name_eng": "Meano",
    "name_ita": "Meano",
    "name_lld": "Meano",
    "id_venue_type": "8",
    "url": "https://meteo.report/var/data/forecasts/db168a1a-c18a-4e83-b3c3-26a077856927.json"
  },
  {
    "id": "17b19ce5-eeb5-425b-ada3-07a5d7128d3c",
    "elevation": 727,
    "lat": 45.893523,
    "lon": 10.686283,
    "name_deu": "Tiarno di Sotto",
    "name_eng": "Tiarno di Sotto",
    "name_ita": "Tiarno di Sotto",
    "name_lld": "Tiarno di Sotto",
    "id_venue_type": "8",
    "url": "https://meteo.report/var/data/forecasts/ceca8894-abbc-4ba3-b0ee-e8150b7e3a9f.json"
  },
  {
    "id": "1896fa78-aeb5-4e99-a5bb-17d2c11d33e3",
    "elevation": 743,
    "lat": 45.890356,
    "lon": 10.672959,
    "name_deu": "Tiarno di Sopra",
    "name_eng": "Tiarno di Sopra",
    "name_ita": "Tiarno di Sopra",
    "name_lld": "Tiarno di Sopra",
    "id_venue_type": "8",
    "url": "https://meteo.report/var/data/forecasts/ceca8894-abbc-4ba3-b0ee-e8150b7e3a9f.json"
  },
  {
    "id": "1cbde1c9-d9f8-4c64-94e0-b387f1460a29",
    "elevation": 767,
    "lat": 46.188291,
    "lon": 11.831746,
    "name_deu": "Siror",
    "name_eng": "Siror",
    "name_ita": "Siror",
    "name_lld": "Siror",
    "id_venue_type": "8",
    "url": "https://meteo.report/var/data/forecasts/77604dfd-9750-4334-8046-74f59c984a3f.json"
  },
  {
    "id": "1f4c9bce-91c8-4256-94a0-c699db89452c",
    "elevation": 176,
    "lat": 45.842314,
    "lon": 11.009833,
    "name_deu": "Marco",
    "name_eng": "Marco",
    "name_ita": "Marco",
    "name_lld": "Marco",
    "id_venue_type": "8",
    "url": "https://meteo.report/var/data/forecasts/6064a14c-3483-44c4-a64c-45b471b4783c.json"
  },
  {
    "id": "210298cb-8981-43c8-9951-f776889e9242",
    "elevation": 722,
    "lat": 46.005147,
    "lon": 11.199776,
    "name_deu": "Vigolo Vattaro",
    "name_eng": "Vigolo Vattaro",
    "name_ita": "Vigolo Vattaro",
    "name_lld": "Vigolo Vattaro",
    "id_venue_type": "8",
    "url": "https://meteo.report/var/data/forecasts/74070c93-f8fb-4aab-9f64-85a5377bbec5.json"
  },
  {
    "id": "2174fb62-35c7-4ae7-8987-1c5202460908",
    "elevation": 1379,
    "lat": 46.419821,
    "lon": 11.674065,
    "name_deu": "Vigo di Fassa",
    "name_eng": "Vigo di Fassa",
    "name_ita": "Vigo di Fassa",
    "name_lld": "Vigo di Fassa",
    "id_venue_type": "8",
    "url": "https://meteo.report/var/data/forecasts/51727344-6fbe-4fb5-b9a4-b8cfce13017b.json"
  },
  {
    "id": "233a80b5-41c6-47fe-8955-56ce202f7a4f",
    "elevation": 688,
    "lat": 45.993605,
    "lon": 11.220102,
    "name_deu": "Vattaro",
    "name_eng": "Vattaro",
    "name_ita": "Vattaro",
    "name_lld": "Vattaro",
    "id_venue_type": "8",
    "url": "https://meteo.report/var/data/forecasts/74070c93-f8fb-4aab-9f64-85a5377bbec5.json"
  },
  {
    "id": "23810681-4bb5-4136-8d8a-91f07ac9ef7b",
    "elevation": 856,
    "lat": 46.221609,
    "lon": 11.293843,
    "name_deu": "Grumes",
    "name_eng": "Grumes",
    "name_ita": "Grumes",
    "name_lld": "Grumes",
    "id_venue_type": "8",
    "url": "https://meteo.report/var/data/forecasts/37bb2112-8b78-4e67-a14b-a8c1841c0804.json"
  },
  {
    "id": "24a1ec02-c535-4f16-8739-5bc3e4a1d231",
    "elevation": 375,
    "lat": 46.07597,
    "lon": 11.146614,
    "name_deu": "Cognola",
    "name_eng": "Cognola",
    "name_ita": "Cognola",
    "name_lld": "Cognola",
    "id_venue_type": "8",
    "url": "https://meteo.report/var/data/forecasts/b0d0e3fc-01fe-4004-adf0-d560669bc7f4.json"
  },
  {
    "id": "26ebc854-5890-488a-a8db-2256bf64cf79",
    "elevation": 382,
    "lat": 46.078523,
    "lon": 10.999918,
    "name_deu": "Vezzano",
    "name_eng": "Vezzano",
    "name_ita": "Vezzano",
    "name_lld": "Vezzano",
    "id_venue_type": "8",
    "url": "https://meteo.report/var/data/forecasts/e37d02f6-081c-40a6-a68a-ae3294c6c04a.json"
  },
  {
    "id": "26f03d94-016d-4366-b602-0d8c2970ccc5",
    "elevation": 614,
    "lat": 46.06252,
    "lon": 10.711286,
    "name_deu": "Villa Rendena",
    "name_eng": "Villa Rendena",
    "name_ita": "Villa Rendena",
    "name_lld": "Villa Rendena",
    "id_venue_type": "8",
    "url": "https://meteo.report/var/data/forecasts/22a90429-6482-47a7-a1b2-2ed6582bd0f5.json"
  },
  {
    "id": "279456cc-ce05-4812-9d40-e91fc0b4aa40",
    "elevation": 161,
    "lat": 45.741225,
    "lon": 10.954895,
    "name_deu": "Sabbionara",
    "name_eng": "Sabbionara",
    "name_ita": "Sabbionara",
    "name_lld": "Sabbionara",
    "id_venue_type": "8",
    "url": "https://meteo.report/var/data/forecasts/328bb878-76fd-4d9c-a198-1af6a2095f2f.json"
  },
  {
    "id": "2a701540-4fcf-4492-b2b5-c1f5bf027823",
    "elevation": 554,
    "lat": 46.031961,
    "lon": 10.845611,
    "name_deu": "Bleggio inferiore",
    "name_eng": "Bleggio inferiore",
    "name_ita": "Bleggio inferiore",
    "name_lld": "Bleggio inferiore",
    "id_venue_type": "8",
    "url": "https://meteo.report/var/data/forecasts/b371e1b3-debc-4587-ab19-94b2f9656c09.json"
  },
  {
    "id": "2bcf8a2d-05ca-4067-9ad2-2fc241fe74b0",
    "elevation": 831,
    "lat": 45.985045,
    "lon": 10.669321,
    "name_deu": "Roncone",
    "name_eng": "Roncone",
    "name_ita": "Roncone",
    "name_lld": "Roncone",
    "id_venue_type": "8",
    "url": "https://meteo.report/var/data/forecasts/c4a33987-f71e-4497-bb5b-c985e148cafa.json"
  },
  {
    "id": "2e342962-814e-4c21-96eb-532c53dc7edf",
    "elevation": 1046,
    "lat": 46.296527,
    "lon": 11.579962,
    "name_deu": "Ronchi di Ala",
    "name_eng": "Ronchi di Ala",
    "name_ita": "Ronchi di Ala",
    "name_lld": "Ronchi di Ala",
    "id_venue_type": "8",
    "url": "https://meteo.report/var/data/forecasts/69793d0f-ca9a-4779-9cf8-9db1e2fe3459.json"
  },
  {
    "id": "2e93f08f-9a8b-41fc-895a-87591e003a16",
    "elevation": 788,
    "lat": 45.949236,
    "lon": 10.636825,
    "name_deu": "Praso",
    "name_eng": "Praso",
    "name_ita": "Praso",
    "name_lld": "Praso",
    "id_venue_type": "8",
    "url": "https://meteo.report/var/data/forecasts/4eb7b383-f759-40bf-8cb2-5276dd769677.json"
  },
  {
    "id": "2fdbc4a7-f177-4c51-96a2-d83be4472d3c",
    "elevation": 646,
    "lat": 45.871499,
    "lon": 10.773104,
    "name_deu": "Molina di Ledro",
    "name_eng": "Molina di Ledro",
    "name_ita": "Molina di Ledro",
    "name_lld": "Molina di Ledro",
    "id_venue_type": "8",
    "url": "https://meteo.report/var/data/forecasts/ceca8894-abbc-4ba3-b0ee-e8150b7e3a9f.json"
  },
  {
    "id": "3182ca87-7f1c-4d4d-a61f-7d7a99ff84cc",
    "elevation": 398,
    "lat": 46.0661393,
    "lon": 11.1484313,
    "name_deu": "Povo",
    "name_eng": "Povo",
    "name_ita": "Povo",
    "name_lld": "Povo",
    "id_venue_type": "8",
    "url": "https://meteo.report/var/data/forecasts/b0d0e3fc-01fe-4004-adf0-d560669bc7f4.json"
  },
  {
    "id": "33671bed-c32d-46e2-8efa-225f25d78f12",
    "elevation": 884,
    "lat": 46.307444,
    "lon": 11.119006,
    "name_deu": "Verv\u00f2",
    "name_eng": "Verv\u00f2",
    "name_ita": "Verv\u00f2",
    "name_lld": "Verv\u00f2",
    "id_venue_type": "8",
    "url": "https://meteo.report/var/data/forecasts/48bb1e05-f5c8-4e49-9cb5-72dfb4933499.json"
  },
  {
    "id": "37d80dad-ad78-42c0-a176-9de6667cc18c",
    "elevation": 1560,
    "lat": 45.841659,
    "lon": 10.684142,
    "name_deu": "Tremalzo",
    "name_eng": "Tremalzo",
    "name_ita": "Tremalzo",
    "name_lld": "Tremalzo",
    "id_venue_type": "8",
    "url": "https://meteo.report/var/data/forecasts/ceca8894-abbc-4ba3-b0ee-e8150b7e3a9f.json"
  },
  {
    "id": "3b2c01e7-0e9d-4e6d-bf83-1d67e78bc6cb",
    "elevation": 614,
    "lat": 45.942814,
    "lon": 10.633983,
    "name_deu": "Bersone",
    "name_eng": "Bersone",
    "name_ita": "Bersone",
    "name_lld": "Bersone",
    "id_venue_type": "8",
    "url": "https://meteo.report/var/data/forecasts/4eb7b383-f759-40bf-8cb2-5276dd769677.json"
  },
  {
    "id": "46662a9d-5191-4475-8a1b-4a1d7e39d1ed",
    "elevation": 715,
    "lat": 46.175556,
    "lon": 11.828155,
    "name_deu": "Fiera di Primiero",
    "name_eng": "Fiera di Primiero",
    "name_ita": "Fiera di Primiero",
    "name_lld": "Fiera di Primiero",
    "id_venue_type": "8",
    "url": "https://meteo.report/var/data/forecasts/77604dfd-9750-4334-8046-74f59c984a3f.json"
  },
  {
    "id": "4941aa49-2f93-470a-92db-e18e32e89465",
    "elevation": 977,
    "lat": 46.341817,
    "lon": 11.107848,
    "name_deu": "Smarano",
    "name_eng": "Smarano",
    "name_ita": "Smarano",
    "name_lld": "Smarano",
    "id_venue_type": "8",
    "url": "https://meteo.report/var/data/forecasts/48bb1e05-f5c8-4e49-9cb5-72dfb4933499.json"
  },
  {
    "id": "496e8100-b27a-4334-9554-fd78c8e33ae1",
    "elevation": 196,
    "lat": 46.099828,
    "lon": 11.119005,
    "name_deu": "Melta",
    "name_eng": "Melta",
    "name_ita": "Melta",
    "name_lld": "Melta",
    "id_venue_type": "8",
    "url": "https://meteo.report/var/data/forecasts/e0c04e2d-8221-48d3-92b9-56e26e743213.json"
  },
  {
    "id": "4c8beae1-1789-41bb-81d5-6b69969512dc",
    "elevation": 480,
    "lat": 46.00408,
    "lon": 11.33772,
    "name_deu": "Barco",
    "name_eng": "Barco",
    "name_ita": "Barco",
    "name_lld": "Barco",
    "id_venue_type": "8",
    "url": "https://meteo.report/var/data/forecasts/358309dc-78e9-4f6c-8681-c96079d9ea49.json"
  },
  {
    "id": "502c7117-4c51-426c-9fb0-ed207fe311f4",
    "elevation": 735,
    "lat": 46.39633,
    "lon": 11.066051,
    "name_deu": "Romallo",
    "name_eng": "Romallo",
    "name_ita": "Romallo",
    "name_lld": "Romallo",
    "id_venue_type": "8",
    "url": "https://meteo.report/var/data/forecasts/7dc0dfec-7061-4962-9645-487778b5e93e.json"
  },
  {
    "id": "5130d86d-9ae4-4554-a2a4-711f30207ca3",
    "elevation": 822,
    "lat": 45.998582,
    "lon": 10.691953,
    "name_deu": "Bondo",
    "name_eng": "Bondo",
    "name_ita": "Bondo",
    "name_lld": "Bondo",
    "id_venue_type": "8",
    "url": "https://meteo.report/var/data/forecasts/c4a33987-f71e-4497-bb5b-c985e148cafa.json"
  },
  {
    "id": "55979883-4b31-44b2-bc7d-4f50dd000d7b",
    "elevation": 1045,
    "lat": 46.45391,
    "lon": 11.008531,
    "name_deu": "Mocenigo",
    "name_eng": "Mocenigo",
    "name_ita": "Mocenigo",
    "name_lld": "Mocenigo",
    "id_venue_type": "8",
    "url": "https://meteo.report/var/data/forecasts/74014907-3b82-42ee-8de9-307a9a962213.json"
  },
  {
    "id": "579a49e5-03ea-4c72-9607-7096d2655dac",
    "elevation": 761,
    "lat": 45.946578,
    "lon": 10.620902,
    "name_deu": "Daone",
    "name_eng": "Daone",
    "name_ita": "Daone",
    "name_lld": "Daone",
    "id_venue_type": "8",
    "url": "https://meteo.report/var/data/forecasts/4eb7b383-f759-40bf-8cb2-5276dd769677.json"
  },
  {
    "id": "5b101785-4ada-4418-abda-2cd4e3f5d3d0",
    "elevation": 560,
    "lat": 46.053133,
    "lon": 10.77644,
    "name_deu": "Ragoli",
    "name_eng": "Ragoli",
    "name_ita": "Ragoli",
    "name_lld": "Ragoli",
    "id_venue_type": "8",
    "url": "https://meteo.report/var/data/forecasts/f448d23e-660e-4556-af4a-b78b5bd3ab24.json"
  },
  {
    "id": "5e640909-0f64-4a43-9d4e-11e88605db55",
    "elevation": 513,
    "lat": 46.320872,
    "lon": 11.066654,
    "name_deu": "Taio",
    "name_eng": "Taio",
    "name_ita": "Taio",
    "name_lld": "Taio",
    "id_venue_type": "8",
    "url": "https://meteo.report/var/data/forecasts/48bb1e05-f5c8-4e49-9cb5-72dfb4933499.json"
  },
  {
    "id": "5f691683-5b38-4f27-b65c-cd2fb1b527ea",
    "elevation": 1078,
    "lat": 46.292225,
    "lon": 11.440548,
    "name_deu": "Carano",
    "name_eng": "Carano",
    "name_ita": "Carano",
    "name_lld": "Carano",
    "id_venue_type": "8",
    "url": "https://meteo.report/var/data/forecasts/493f942b-0f26-4266-888d-77382b00569e.json"
  },
  {
    "id": "61134c5b-3771-4528-8d53-fad0fe71f9da",
    "elevation": 270,
    "lat": 46.04856,
    "lon": 11.138023,
    "name_deu": "Villazzano",
    "name_eng": "Villazzano",
    "name_ita": "Villazzano",
    "name_lld": "Villazzano",
    "id_venue_type": "8",
    "url": "https://meteo.report/var/data/forecasts/b0d0e3fc-01fe-4004-adf0-d560669bc7f4.json"
  },
  {
    "id": "62788af0-d009-4f88-a010-5500d124d332",
    "elevation": 540,
    "lat": 45.912178,
    "lon": 10.613196,
    "name_deu": "Cimego",
    "name_eng": "Cimego",
    "name_ita": "Cimego",
    "name_lld": "Cimego",
    "id_venue_type": "8",
    "url": "https://meteo.report/var/data/forecasts/d2888885-2878-48db-b903-6a1266db3582.json"
  },
  {
    "id": "63cbabed-2994-497c-a386-192e47d12744",
    "elevation": 750,
    "lat": 46.181794,
    "lon": 11.840011,
    "name_deu": "Tonadico",
    "name_eng": "Tonadico",
    "name_ita": "Tonadico",
    "name_lld": "Tonadico",
    "id_venue_type": "8",
    "url": "https://meteo.report/var/data/forecasts/77604dfd-9750-4334-8046-74f59c984a3f.json"
  },
  {
    "id": "63def287-b05d-413a-be0c-bf7145819c50",
    "elevation": 591,
    "lat": 46.29888,
    "lon": 11.029744,
    "name_deu": "Flavon",
    "name_eng": "Flavon",
    "name_ita": "Flavon",
    "name_lld": "Flavon",
    "id_venue_type": "8",
    "url": "https://meteo.report/var/data/forecasts/532de7ad-8fee-4162-a298-afc80c3af87f.json"
  },
  {
    "id": "65494f3a-e0e4-4d4a-8b89-d0ea08a58e26",
    "elevation": 391,
    "lat": 46.057409,
    "lon": 11.519998,
    "name_deu": "Villa Agnedo",
    "name_eng": "Villa Agnedo",
    "name_ita": "Villa Agnedo",
    "name_lld": "Villa Agnedo",
    "id_venue_type": "8",
    "url": "https://meteo.report/var/data/forecasts/693fcdd9-aa41-4e24-a88a-bc76925c3e29.json"
  },
  {
    "id": "6725a75e-55ad-4b99-909b-e4fa6d5f5f95",
    "elevation": 939,
    "lat": 46.455816,
    "lon": 11.116308,
    "name_deu": "Castelfondo",
    "name_eng": "Castelfondo",
    "name_ita": "Castelfondo",
    "name_lld": "Castelfondo",
    "id_venue_type": "8",
    "url": "https://meteo.report/var/data/forecasts/cbc65c6e-82aa-4e27-80ab-6a2d56479133.json"
  },
  {
    "id": "686e59fd-b46a-46c0-b2b6-c2e7fbf2c026",
    "elevation": 828,
    "lat": 45.96807,
    "lon": 11.232127,
    "name_deu": "Centa San Nicol\u00f2",
    "name_eng": "Centa San Nicol\u00f2",
    "name_ita": "Centa San Nicol\u00f2",
    "name_lld": "Centa San Nicol\u00f2",
    "id_venue_type": "8",
    "url": "https://meteo.report/var/data/forecasts/74070c93-f8fb-4aab-9f64-85a5377bbec5.json"
  },
  {
    "id": "68827240-f6a5-4e70-9522-dd56f284bea3",
    "elevation": 671,
    "lat": 46.001369,
    "lon": 11.223642,
    "name_deu": "Bosentino",
    "name_eng": "Bosentino",
    "name_ita": "Bosentino",
    "name_lld": "Bosentino",
    "id_venue_type": "8",
    "url": "https://meteo.report/var/data/forecasts/74070c93-f8fb-4aab-9f64-85a5377bbec5.json"
  },
  {
    "id": "6f03a07b-80e6-481f-bc5f-978c132cb2f9",
    "elevation": 608,
    "lat": 46.075381,
    "lon": 10.718608,
    "name_deu": "Dar\u00e8",
    "name_eng": "Dar\u00e8",
    "name_ita": "Dar\u00e8",
    "name_lld": "Dar\u00e8",
    "id_venue_type": "8",
    "url": "https://meteo.report/var/data/forecasts/22a90429-6482-47a7-a1b2-2ed6582bd0f5.json"
  },
  {
    "id": "700169be-5429-4179-926f-7726d763ef3a",
    "elevation": 1306,
    "lat": 46.428359,
    "lon": 11.684165,
    "name_deu": "Pozza di Fassa",
    "name_eng": "Pozza di Fassa",
    "name_ita": "Pozza di Fassa",
    "name_lld": "Poza",
    "id_venue_type": "8",
    "url": "https://meteo.report/var/data/forecasts/51727344-6fbe-4fb5-b9a4-b8cfce13017b.json"
  },
  {
    "id": "71e036df-45b9-4d73-8aa2-20857e0cd834",
    "elevation": 374,
    "lat": 46.08907,
    "lon": 11.129858,
    "name_deu": "Martignano",
    "name_eng": "Martignano",
    "name_ita": "Martignano",
    "name_lld": "Martignano",
    "id_venue_type": "8",
    "url": "https://meteo.report/var/data/forecasts/b0d0e3fc-01fe-4004-adf0-d560669bc7f4.json"
  },
  {
    "id": "7308517a-a656-4e65-a48b-57a711f5ad00",
    "elevation": 621,
    "lat": 46.078985,
    "lon": 10.7192,
    "name_deu": "Vigo Rendena",
    "name_eng": "Vigo Rendena",
    "name_ita": "Vigo Rendena",
    "name_lld": "Vigo Rendena",
    "id_venue_type": "8",
    "url": "https://meteo.report/var/data/forecasts/22a90429-6482-47a7-a1b2-2ed6582bd0f5.json"
  },
  {
    "id": "787db691-90f4-42cf-a192-8b8aaebb308f",
    "elevation": 390,
    "lat": 45.836347,
    "lon": 10.969974,
    "name_deu": "Besagno",
    "name_eng": "Besagno",
    "name_ita": "Besagno",
    "name_lld": "Besagno",
    "id_venue_type": "8",
    "url": "https://meteo.report/var/data/forecasts/034a30f4-aa50-411f-948f-d4365f1be53f.json"
  },
  {
    "id": "78da22dc-e6bd-4a6b-af3e-05b9fbf1994f",
    "elevation": 251,
    "lat": 46.037706,
    "lon": 11.107408,
    "name_deu": "Ravina",
    "name_eng": "Ravina",
    "name_ita": "Ravina",
    "name_lld": "Ravina",
    "id_venue_type": "8",
    "url": "https://meteo.report/var/data/forecasts/e0c04e2d-8221-48d3-92b9-56e26e743213.json"
  },
  {
    "id": "7adff9ce-1fb6-4924-8cfa-86e05fbdb006",
    "elevation": 275,
    "lat": 46.061655,
    "lon": 10.987935,
    "name_deu": "Padergnone",
    "name_eng": "Padergnone",
    "name_ita": "Padergnone",
    "name_lld": "Padergnone",
    "id_venue_type": "8",
    "url": "https://meteo.report/var/data/forecasts/e37d02f6-081c-40a6-a68a-ae3294c6c04a.json"
  },